[
  {
    "id": "ce8bd412-c46b-444e-8d18-a1af4d739395",
    "name": "Port Moresby Jacksons International Airport",
    "is_hub": false,
    "is_destination": false,
    "type": "large_airport",
    "country": "Papua New Guinea",
    "city": "Port Moresby",
    "latitude": -9.443380355834961,
    "longitude": 147.22000122070312,
    "gps_code": "AYPY",
    "iata_code": "POM"
  },
  {
    "id": "ca550671-bc5f-4080-a701-6157ab642c04",
    "name": "Zabrat Airport",
    "is_hub": false,
    "is_destination": true,
    "type": "medium_airport",
    "country": "Azerbaijan",
    "city": "Baku",
    "latitude": 40.4955422161,
    "longitude": 49.9768066406,
    "gps_code": "UBTT",
    "iata_code": "ZXT"
  },
  {
    "id": "93bdf7eb-5ec1-4cf3-8ddb-dfe154332cbf",
    "name": "Keflavik International Airport",
    "is_hub": false,
    "is_destination": false,
    "type": "large_airport",
    "country": "Iceland",
    "city": "Reykjav\u00edk",
    "latitude": 63.985000610352,
    "longitude": -22.605600357056,
    "gps_code": "BIKF",
    "iata_code": "KEF"
  },
  {
    "id": "708a4b1e-e488-49c3-b712-ccd83a6f3666",
    "name": "Pri\u0161tina International Airport",
    "is_hub": false,
    "is_destination": false,
    "type": "large_airport",
    "country": "Kosovo",
    "city": "Prishtina",
    "latitude": 42.5728,
    "longitude": 21.035801,
    "gps_code": "BKPR",
    "iata_code": "PRN"
  },
  {
    "id": "528392a5-9343-4af0-ab26-95fbfd830143",
    "name": "Edmonton International Airport",
    "is_hub": false,
    "is_destination": false,
    "type": "large_airport",
    "country": "Canada",
    "city": "Edmonton",
    "latitude": 53.309700012200004,
    "longitude": -113.580001831,
    "gps_code": "CYEG",
    "iata_code": "YEG"
  },
  {
    "id": "c4751551-c618-49fc-b486-5459886a7f4f",
    "name": "Halifax / Stanfield International Airport",
    "is_hub": false,
    "is_destination": false,
    "type": "large_airport",
    "country": "Canada",
    "city": "Halifax",
    "latitude": 44.8807983398,
    "longitude": -63.5085983276,
    "gps_code": "CYHZ",
    "iata_code": "YHZ"
  },
  {
    "id": "f125d1cb-8550-4c79-8e56-0be8b231b7da",
    "name": "Buttonville Municipal Airport",
    "is_hub": false,
    "is_destination": true,
    "type": "medium_airport",
    "country": "Canada",
    "city": "Toronto",
    "latitude": 43.86220169067383,
    "longitude": -79.37000274658203,
    "gps_code": "CYKZ",
    "iata_code": "YKZ"
  },
  {
    "id": "a2abd6f3-a470-4acb-96a7-0a1a4000bfa1",
    "name": "Ottawa Macdonald-Cartier International Airport",
    "is_hub": false,
    "is_destination": true,
    "type": "large_airport",
    "country": "Canada",
    "city": "Ottawa",
    "latitude": 45.3224983215332,
    "longitude": -75.66919708251953,
    "gps_code": "CYOW",
    "iata_code": "YOW"
  },
  {
    "id": "d69a4db9-6241-4b74-b3f8-2ef0d43126d1",
    "name": "Sydney / J.A. Douglas McCurdy Airport",
    "is_hub": false,
    "is_destination": true,
    "type": "medium_airport",
    "country": "Canada",
    "city": "Sydney",
    "latitude": 46.1614,
    "longitude": -60.047798,
    "gps_code": "CYQY",
    "iata_code": "YQY"
  },
  {
    "id": "13861a9c-53a6-45d2-a72d-d3026e62fe57",
    "name": "Ottawa / Rockcliffe Airport",
    "is_hub": false,
    "is_destination": true,
    "type": "medium_airport",
    "country": "Canada",
    "city": "Ottawa",
    "latitude": 45.4603004456,
    "longitude": -75.64610290530001,
    "gps_code": "CYRO",
    "iata_code": "YRO"
  },
  {
    "id": "c3a75574-9f07-4f68-aadc-43622ba62f5f",
    "name": "Billy Bishop Toronto City Centre Airport",
    "is_hub": false,
    "is_destination": true,
    "type": "medium_airport",
    "country": "Canada",
    "city": "Toronto",
    "latitude": 43.627499,
    "longitude": -79.396202,
    "gps_code": "CYTZ",
    "iata_code": "YTZ"
  },
  {
    "id": "055e6714-5791-4448-8f87-b3f1aec191af",
    "name": "Montreal / Pierre Elliott Trudeau International Airport",
    "is_hub": false,
    "is_destination": false,
    "type": "large_airport",
    "country": "Canada",
    "city": "Montr\u00e9al",
    "latitude": 45.4706001282,
    "longitude": -73.7407989502,
    "gps_code": "CYUL",
    "iata_code": "YUL"
  },
  {
    "id": "21697649-8841-4267-9967-19052d1327fb",
    "name": "Vancouver International Airport",
    "is_hub": false,
    "is_destination": true,
    "type": "large_airport",
    "country": "Canada",
    "city": "Vancouver",
    "latitude": 49.193901062,
    "longitude": -123.183998108,
    "gps_code": "CYVR",
    "iata_code": "YVR"
  },
  {
    "id": "43de6774-7365-407c-be0a-9cac26652f40",
    "name": "Winnipeg / James Armstrong Richardson International Airport",
    "is_hub": false,
    "is_destination": false,
    "type": "large_airport",
    "country": "Canada",
    "city": "Winnipeg",
    "latitude": 49.909999847399995,
    "longitude": -97.2398986816,
    "gps_code": "CYWG",
    "iata_code": "YWG"
  },
  {
    "id": "602ae902-796f-4912-875a-343c241b9497",
    "name": "London Airport",
    "is_hub": false,
    "is_destination": true,
    "type": "medium_airport",
    "country": "Canada",
    "city": "London",
    "latitude": 43.035599,
    "longitude": -81.1539,
    "gps_code": "CYXU",
    "iata_code": "YXU"
  },
  {
    "id": "5adf4c66-6d2d-42e1-a01e-7b18bd0bcc83",
    "name": "Calgary International Airport",
    "is_hub": false,
    "is_destination": true,
    "type": "large_airport",
    "country": "Canada",
    "city": "Calgary",
    "latitude": 51.113899231,
    "longitude": -114.019996643,
    "gps_code": "CYYC",
    "iata_code": "YYC"
  },
  {
    "id": "4b9ac137-79a2-4af1-9f47-7ac22cd9420e",
    "name": "Victoria International Airport",
    "is_hub": false,
    "is_destination": false,
    "type": "large_airport",
    "country": "Canada",
    "city": "Victoria",
    "latitude": 48.646900177,
    "longitude": -123.426002502,
    "gps_code": "CYYJ",
    "iata_code": "YYJ"
  },
  {
    "id": "2a340ba1-16e4-43ee-8c2b-a9f23ea5be0a",
    "name": "St. John's International Airport",
    "is_hub": false,
    "is_destination": false,
    "type": "large_airport",
    "country": "Canada",
    "city": "St. John's",
    "latitude": 47.618598938,
    "longitude": -52.7518997192,
    "gps_code": "CYYT",
    "iata_code": "YYT"
  },
  {
    "id": "6275b58b-55a8-4c3f-93fa-372529ee0b2f",
    "name": "Lester B. Pearson International Airport",
    "is_hub": true,
    "is_destination": true,
    "type": "large_airport",
    "country": "Canada",
    "city": "Toronto",
    "latitude": 43.6772003174,
    "longitude": -79.63059997559999,
    "gps_code": "CYYZ",
    "iata_code": "YYZ"
  },
  {
    "id": "4e1d8aae-5614-4d2d-827c-08acfa4ac020",
    "name": "Downsview Airport",
    "is_hub": false,
    "is_destination": true,
    "type": "medium_airport",
    "country": "Canada",
    "city": "Toronto",
    "latitude": 43.74250030517578,
    "longitude": -79.4655990600586,
    "gps_code": "CYZD",
    "iata_code": "YZD"
  },
  {
    "id": "f57b3f2e-1d8c-4b4c-ac98-7ec2b7c3f199",
    "name": "Boundary Bay Airport",
    "is_hub": false,
    "is_destination": true,
    "type": "medium_airport",
    "country": "Canada",
    "city": "Vancouver",
    "latitude": 49.0742,
    "longitude": -123.012001,
    "gps_code": "CZBB",
    "iata_code": "YDT"
  },
  {
    "id": "8fd387de-411f-4da4-967e-0b9680347a82",
    "name": "Houari Boumediene Airport",
    "is_hub": false,
    "is_destination": true,
    "type": "large_airport",
    "country": "Algeria",
    "city": "Algiers",
    "latitude": 36.691001892089844,
    "longitude": 3.215409994125366,
    "gps_code": "DAAG",
    "iata_code": "ALG"
  },
  {
    "id": "ad3a2c08-95b7-4952-866c-93d7de3c041d",
    "name": "Ouagadougou Airport",
    "is_hub": false,
    "is_destination": true,
    "type": "large_airport",
    "country": "Burkina Faso",
    "city": "Ouagadougou",
    "latitude": 12.3532,
    "longitude": -1.51242,
    "gps_code": "DFFD",
    "iata_code": "OUA"
  },
  {
    "id": "2c18901b-aaaa-429e-b1d2-a95228bc0e1a",
    "name": "Kotoka International Airport",
    "is_hub": false,
    "is_destination": true,
    "type": "large_airport",
    "country": "Ghana",
    "city": "Accra",
    "latitude": 5.605189800262451,
    "longitude": -0.16678600013256073,
    "gps_code": "DGAA",
    "iata_code": "ACC"
  },
  {
    "id": "b5c0ba8b-274f-4697-b0ed-a83bb6868d3f",
    "name": "Nnamdi Azikiwe International Airport",
    "is_hub": false,
    "is_destination": false,
    "type": "large_airport",
    "country": "Nigeria",
    "city": "Abuja",
    "latitude": 9.006790161132812,
    "longitude": 7.263169765472412,
    "gps_code": "DNAA",
    "iata_code": "ABV"
  },
  {
    "id": "38c31088-db62-4ec3-ac63-f0483a9121c9",
    "name": "Akwa Ibom International Airport",
    "is_hub": false,
    "is_destination": false,
    "type": "large_airport",
    "country": "Nigeria",
    "city": "Uyo",
    "latitude": 4.8725,
    "longitude": 8.093,
    "gps_code": "DNAI",
    "iata_code": "QUO"
  },
  {
    "id": "0fbfe0d1-d7a0-40c3-a258-dea1608b6518",
    "name": "Ibadan Airport",
    "is_hub": false,
    "is_destination": true,
    "type": "medium_airport",
    "country": "Nigeria",
    "city": "Ibadan",
    "latitude": 7.362460136413574,
    "longitude": 3.97832989692688,
    "gps_code": "DNIB",
    "iata_code": "IBA"
  },
  {
    "id": "dc931760-d8cc-429a-b694-420d80a63613",
    "name": "Mallam Aminu International Airport",
    "is_hub": false,
    "is_destination": true,
    "type": "large_airport",
    "country": "Nigeria",
    "city": "Kano",
    "latitude": 12.0476,
    "longitude": 8.52462,
    "gps_code": "DNKN",
    "iata_code": "KAN"
  },
  {
    "id": "a652ca38-e86f-4537-87d3-9443e35fc32b",
    "name": "Murtala Muhammed International Airport",
    "is_hub": false,
    "is_destination": true,
    "type": "large_airport",
    "country": "Nigeria",
    "city": "Lagos",
    "latitude": 6.5773701667785645,
    "longitude": 3.321160078048706,
    "gps_code": "DNMM",
    "iata_code": "LOS"
  },
  {
    "id": "b8c7e81e-e6ef-4194-94fd-4c4f1c1c5e57",
    "name": "Diori Hamani International Airport",
    "is_hub": false,
    "is_destination": false,
    "type": "large_airport",
    "country": "Niger",
    "city": "Niamey",
    "latitude": 13.4815,
    "longitude": 2.18361,
    "gps_code": "DRRN",
    "iata_code": "NIM"
  },
  {
    "id": "5c49908f-ce9d-4333-8f59-4f1d797aa4a4",
    "name": "Tunis Carthage International Airport",
    "is_hub": false,
    "is_destination": false,
    "type": "large_airport",
    "country": "Tunisia",
    "city": "Tunis",
    "latitude": 36.85100173950195,
    "longitude": 10.22719955444336,
    "gps_code": "DTTA",
    "iata_code": "TUN"
  },
  {
    "id": "e5a2903d-8b35-4056-939b-856822bae1b5",
    "name": "Brussels Airport",
    "is_hub": false,
    "is_destination": false,
    "type": "large_airport",
    "country": "Belgium",
    "city": "Brussels",
    "latitude": 50.901401519800004,
    "longitude": 4.48443984985,
    "gps_code": "EBBR",
    "iata_code": "BRU"
  },
  {
    "id": "cd6baeea-dcde-481d-adc2-50868031049b",
    "name": "Brussels South Charleroi Airport",
    "is_hub": false,
    "is_destination": false,
    "type": "large_airport",
    "country": "Belgium",
    "city": "Brussels",
    "latitude": 50.459202,
    "longitude": 4.45382,
    "gps_code": "EBCI",
    "iata_code": "CRL"
  },
  {
    "id": "bf9b6627-d19e-40c3-8cbf-db49d31b0546",
    "name": "Li\u00e8ge Airport",
    "is_hub": false,
    "is_destination": false,
    "type": "large_airport",
    "country": "Belgium",
    "city": "Li\u00e8ge",
    "latitude": 50.63740158081055,
    "longitude": 5.443220138549805,
    "gps_code": "EBLG",
    "iata_code": "LGG"
  },
  {
    "id": "1ceed8c0-8f07-4e31-a1e6-a4221281a9f5",
    "name": "Berlin-Sch\u00f6nefeld Airport",
    "is_hub": false,
    "is_destination": true,
    "type": "large_airport",
    "country": "Germany",
    "city": "Berlin",
    "latitude": 52.380001,
    "longitude": 13.5225,
    "gps_code": "EDDB",
    "iata_code": "SXF"
  },
  {
    "id": "b787008e-127f-4bf5-bb2b-4517abe3d5a5",
    "name": "Dresden Airport",
    "is_hub": false,
    "is_destination": false,
    "type": "large_airport",
    "country": "Germany",
    "city": "Dresden",
    "latitude": 51.1328010559082,
    "longitude": 13.767200469970703,
    "gps_code": "EDDC",
    "iata_code": "DRS"
  },
  {
    "id": "485cc3a7-0ae0-4b9b-9d87-3ad5e5835ee2",
    "name": "Frankfurt am Main Airport",
    "is_hub": true,
    "is_destination": false,
    "type": "large_airport",
    "country": "Germany",
    "city": "Frankfurt am Main",
    "latitude": 50.033333,
    "longitude": 8.570556,
    "gps_code": "EDDF",
    "iata_code": "FRA"
  },
  {
    "id": "49268662-1ac9-408d-85f0-01a2a4c8404b",
    "name": "M\u00fcnster Osnabr\u00fcck Airport",
    "is_hub": false,
    "is_destination": false,
    "type": "large_airport",
    "country": "Germany",
    "city": "M\u00fcnster",
    "latitude": 52.134601593,
    "longitude": 7.68483018875,
    "gps_code": "EDDG",
    "iata_code": "FMO"
  },
  {
    "id": "cc01ebdb-f01d-4990-8b90-e1eee2487540",
    "name": "Hamburg Airport",
    "is_hub": false,
    "is_destination": true,
    "type": "large_airport",
    "country": "Germany",
    "city": "Hamburg",
    "latitude": 53.630401611328,
    "longitude": 9.9882297515869,
    "gps_code": "EDDH",
    "iata_code": "HAM"
  },
  {
    "id": "2c4fd000-873f-43f8-bf1e-337440a5c1f2",
    "name": "Cologne Bonn Airport",
    "is_hub": false,
    "is_destination": false,
    "type": "large_airport",
    "country": "Germany",
    "city": "Cologne",
    "latitude": 50.8658981323,
    "longitude": 7.1427397728,
    "gps_code": "EDDK",
    "iata_code": "CGN"
  },
  {
    "id": "f8cd9eb3-4bac-43c0-af8b-700b4557f1cc",
    "name": "D\u00fcsseldorf Airport",
    "is_hub": false,
    "is_destination": false,
    "type": "large_airport",
    "country": "Germany",
    "city": "D\u00fcsseldorf",
    "latitude": 51.289501,
    "longitude": 6.76678,
    "gps_code": "EDDL",
    "iata_code": "DUS"
  },
  {
    "id": "f63c12f9-bd84-4b9c-a304-103e179ae0c0",
    "name": "Munich Airport",
    "is_hub": true,
    "is_destination": true,
    "type": "large_airport",
    "country": "Germany",
    "city": "Munich",
    "latitude": 48.353802,
    "longitude": 11.7861,
    "gps_code": "EDDM",
    "iata_code": "MUC"
  },
  {
    "id": "f8a66d30-afcc-48bb-9449-23883c50ce55",
    "name": "Nuremberg Airport",
    "is_hub": false,
    "is_destination": false,
    "type": "large_airport",
    "country": "Germany",
    "city": "Nuremberg",
    "latitude": 49.498699,
    "longitude": 11.078056,
    "gps_code": "EDDN",
    "iata_code": "NUE"
  },
  {
    "id": "7f009cc6-a983-45fb-aff7-35c1ad17279c",
    "name": "Leipzig/Halle Airport",
    "is_hub": false,
    "is_destination": false,
    "type": "large_airport",
    "country": "Germany",
    "city": "Leipzig",
    "latitude": 51.423889,
    "longitude": 12.236389,
    "gps_code": "EDDP",
    "iata_code": "LEJ"
  },
  {
    "id": "d46446da-75ce-4f1e-b4c4-09e44c4311fc",
    "name": "Stuttgart Airport",
    "is_hub": false,
    "is_destination": false,
    "type": "large_airport",
    "country": "Germany",
    "city": "Stuttgart",
    "latitude": 48.689899444599995,
    "longitude": 9.22196006775,
    "gps_code": "EDDS",
    "iata_code": "STR"
  },
  {
    "id": "5b479104-0135-4a00-863a-b579bb2e4646",
    "name": "Berlin-Tegel Airport",
    "is_hub": false,
    "is_destination": true,
    "type": "large_airport",
    "country": "Germany",
    "city": "Berlin",
    "latitude": 52.5597,
    "longitude": 13.2877,
    "gps_code": "EDDT",
    "iata_code": "TXL"
  },
  {
    "id": "8e5ff46b-b38b-463c-8c54-832e7e72d048",
    "name": "Hannover Airport",
    "is_hub": false,
    "is_destination": false,
    "type": "large_airport",
    "country": "Germany",
    "city": "Hannover",
    "latitude": 52.461101532,
    "longitude": 9.685079574580001,
    "gps_code": "EDDV",
    "iata_code": "HAJ"
  },
  {
    "id": "15b85c89-afd5-4539-aa82-8b279c4b85ac",
    "name": "Bremen Airport",
    "is_hub": false,
    "is_destination": false,
    "type": "large_airport",
    "country": "Germany",
    "city": "Bremen",
    "latitude": 53.0475006104,
    "longitude": 8.78666973114,
    "gps_code": "EDDW",
    "iata_code": "BRE"
  },
  {
    "id": "11183ce1-d011-474d-acb6-f0d1932d46cb",
    "name": "Hamburg-Finkenwerder Airport",
    "is_hub": false,
    "is_destination": true,
    "type": "medium_airport",
    "country": "Germany",
    "city": "Hamburg",
    "latitude": 53.5352783203125,
    "longitude": 9.835556030273438,
    "gps_code": "EDHI",
    "iata_code": "XFW"
  },
  {
    "id": "c643bb83-8411-4a35-bb64-eb5bd5957f97",
    "name": "Dortmund Airport",
    "is_hub": false,
    "is_destination": false,
    "type": "large_airport",
    "country": "Germany",
    "city": "Dortmund",
    "latitude": 51.51829910279999,
    "longitude": 7.61223983765,
    "gps_code": "EDLW",
    "iata_code": "DTM"
  },
  {
    "id": "6887a11f-86a7-48cc-97f3-07550a6fd704",
    "name": "Karlsruhe Baden-Baden Airport",
    "is_hub": false,
    "is_destination": false,
    "type": "large_airport",
    "country": "Germany",
    "city": "Baden-Baden",
    "latitude": 48.7793998718,
    "longitude": 8.08049964905,
    "gps_code": "EDSB",
    "iata_code": "FKB"
  },
  {
    "id": "4d4d078c-7a63-4af8-9b86-7d0a1894f793",
    "name": "Lennart Meri Tallinn Airport",
    "is_hub": false,
    "is_destination": false,
    "type": "large_airport",
    "country": "Estonia",
    "city": "Tallinn",
    "latitude": 59.41329956049999,
    "longitude": 24.832799911499997,
    "gps_code": "EETN",
    "iata_code": "TLL"
  },
  {
    "id": "9ee95905-4935-4b36-bee7-ab40bb8dafe4",
    "name": "Helsinki Vantaa Airport",
    "is_hub": false,
    "is_destination": false,
    "type": "large_airport",
    "country": "Finland",
    "city": "Helsinki",
    "latitude": 60.317199707031,
    "longitude": 24.963300704956,
    "gps_code": "EFHK",
    "iata_code": "HEL"
  },
  {
    "id": "10f9686d-668a-471e-a762-f31312d1a084",
    "name": "Belfast International Airport",
    "is_hub": false,
    "is_destination": false,
    "type": "large_airport",
    "country": "United Kingdom",
    "city": "Belfast",
    "latitude": 54.6575012207,
    "longitude": -6.2158298492399995,
    "gps_code": "EGAA",
    "iata_code": "BFS"
  },
  {
    "id": "36ea391b-3b08-4e97-9caf-11922d5e4067",
    "name": "George Best Belfast City Airport",
    "is_hub": false,
    "is_destination": false,
    "type": "large_airport",
    "country": "United Kingdom",
    "city": "Belfast",
    "latitude": 54.618099212646484,
    "longitude": -5.872499942779541,
    "gps_code": "EGAC",
    "iata_code": "BHD"
  },
  {
    "id": "66f4907c-e8e4-4446-8da0-53b00624ae3e",
    "name": "Birmingham International Airport",
    "is_hub": false,
    "is_destination": false,
    "type": "large_airport",
    "country": "United Kingdom",
    "city": "Birmingham",
    "latitude": 52.453899383499994,
    "longitude": -1.74802994728,
    "gps_code": "EGBB",
    "iata_code": "BHX"
  },
  {
    "id": "b4200d5a-a627-417f-b4f0-c2f6c6225671",
    "name": "Manchester Airport",
    "is_hub": false,
    "is_destination": false,
    "type": "large_airport",
    "country": "United Kingdom",
    "city": "Manchester",
    "latitude": 53.35369873046875,
    "longitude": -2.2749500274658203,
    "gps_code": "EGCC",
    "iata_code": "MAN"
  },
  {
    "id": "94b6d3a3-db28-4720-a862-c9e5c9d793f4",
    "name": "Robin Hood Doncaster Sheffield Airport",
    "is_hub": false,
    "is_destination": false,
    "type": "large_airport",
    "country": "United Kingdom",
    "city": "Doncaster",
    "latitude": 53.4805378105,
    "longitude": -1.01065635681,
    "gps_code": "EGCN",
    "iata_code": "DSA"
  },
  {
    "id": "a613636e-b5ce-4d0b-af3a-3614859eca30",
    "name": "Cardiff International Airport",
    "is_hub": false,
    "is_destination": false,
    "type": "large_airport",
    "country": "United Kingdom",
    "city": "Cardiff",
    "latitude": 51.39670181274414,
    "longitude": -3.343329906463623,
    "gps_code": "EGFF",
    "iata_code": "CWL"
  },
  {
    "id": "7fe2dd40-40bf-4ad4-9ea7-4e1fc329846d",
    "name": "Bristol Airport",
    "is_hub": false,
    "is_destination": false,
    "type": "large_airport",
    "country": "United Kingdom",
    "city": "Bristol",
    "latitude": 51.382702,
    "longitude": -2.71909,
    "gps_code": "EGGD",
    "iata_code": "BRS"
  },
  {
    "id": "4af28fca-5ac6-460c-938f-e67adccb9ec8",
    "name": "Liverpool John Lennon Airport",
    "is_hub": false,
    "is_destination": false,
    "type": "large_airport",
    "country": "United Kingdom",
    "city": "Liverpool",
    "latitude": 53.33359909057617,
    "longitude": -2.849720001220703,
    "gps_code": "EGGP",
    "iata_code": "LPL"
  },
  {
    "id": "e4e53464-dce9-4180-97c4-2566318bbcf3",
    "name": "London Luton Airport",
    "is_hub": false,
    "is_destination": true,
    "type": "large_airport",
    "country": "United Kingdom",
    "city": "London",
    "latitude": 51.874698638916016,
    "longitude": -0.36833301186561584,
    "gps_code": "EGGW",
    "iata_code": "LTN"
  },
  {
    "id": "0da2cf04-55e1-416a-b429-29c0e9a5bd3f",
    "name": "Bournemouth Airport",
    "is_hub": false,
    "is_destination": false,
    "type": "large_airport",
    "country": "United Kingdom",
    "city": "Bournemouth",
    "latitude": 50.779998779296875,
    "longitude": -1.8424999713897705,
    "gps_code": "EGHH",
    "iata_code": "BOH"
  },
  {
    "id": "ffe27df5-eaba-496e-a8d8-28ce7a0b1f30",
    "name": "Southampton Airport",
    "is_hub": false,
    "is_destination": false,
    "type": "large_airport",
    "country": "United Kingdom",
    "city": "Southampton",
    "latitude": 50.95029830932617,
    "longitude": -1.3567999601364136,
    "gps_code": "EGHI",
    "iata_code": "SOU"
  },
  {
    "id": "2cd63a92-2438-44f9-9547-1ca08eabeda3",
    "name": "London Biggin Hill Airport",
    "is_hub": false,
    "is_destination": true,
    "type": "medium_airport",
    "country": "United Kingdom",
    "city": "London",
    "latitude": 51.33079910279999,
    "longitude": 0.0324999988079,
    "gps_code": "EGKB",
    "iata_code": "BQH"
  },
  {
    "id": "0f08dd15-29a5-44aa-bfa2-18dc89f0f650",
    "name": "London Gatwick Airport",
    "is_hub": true,
    "is_destination": true,
    "type": "large_airport",
    "country": "United Kingdom",
    "city": "London",
    "latitude": 51.148102,
    "longitude": -0.190278,
    "gps_code": "EGKK",
    "iata_code": "LGW"
  },
  {
    "id": "5ca74c4f-2f97-44aa-98f3-e57179d7ba81",
    "name": "London City Airport",
    "is_hub": false,
    "is_destination": true,
    "type": "medium_airport",
    "country": "United Kingdom",
    "city": "London",
    "latitude": 51.505299,
    "longitude": 0.055278,
    "gps_code": "EGLC",
    "iata_code": "LCY"
  },
  {
    "id": "d437fec4-f9b4-4e32-9b83-95b774df2030",
    "name": "London Heathrow Airport",
    "is_hub": true,
    "is_destination": true,
    "type": "large_airport",
    "country": "United Kingdom",
    "city": "London",
    "latitude": 51.4706,
    "longitude": -0.461941,
    "gps_code": "EGLL",
    "iata_code": "LHR"
  },
  {
    "id": "3d871baf-ef37-40fc-a957-2170931711e2",
    "name": "Leeds Bradford Airport",
    "is_hub": false,
    "is_destination": false,
    "type": "large_airport",
    "country": "United Kingdom",
    "city": "Leeds",
    "latitude": 53.86589813232422,
    "longitude": -1.6605700254440308,
    "gps_code": "EGNM",
    "iata_code": "LBA"
  },
  {
    "id": "672fdce7-3541-42cd-b0ad-b9ece4c8a7e0",
    "name": "Newcastle Airport",
    "is_hub": false,
    "is_destination": false,
    "type": "large_airport",
    "country": "United Kingdom",
    "city": "Newcastle",
    "latitude": 55.037498474121094,
    "longitude": -1.6916699409484863,
    "gps_code": "EGNT",
    "iata_code": "NCL"
  },
  {
    "id": "e6c73847-a181-428d-ba43-3162f49e00fb",
    "name": "East Midlands Airport",
    "is_hub": false,
    "is_destination": false,
    "type": "large_airport",
    "country": "United Kingdom",
    "city": "Nottingham",
    "latitude": 52.8311004639,
    "longitude": -1.32806003094,
    "gps_code": "EGNX",
    "iata_code": "EMA"
  },
  {
    "id": "f2d01f69-e886-449b-bcf5-d19ada1235f3",
    "name": "Aberdeen Dyce Airport",
    "is_hub": false,
    "is_destination": false,
    "type": "large_airport",
    "country": "United Kingdom",
    "city": "Aberdeen",
    "latitude": 57.201900482177734,
    "longitude": -2.197779893875122,
    "gps_code": "EGPD",
    "iata_code": "ABZ"
  },
  {
    "id": "616b92d9-3d36-4f4d-9e08-ed72a365007f",
    "name": "Glasgow International Airport",
    "is_hub": false,
    "is_destination": false,
    "type": "large_airport",
    "country": "United Kingdom",
    "city": "Glasgow",
    "latitude": 55.8718986511,
    "longitude": -4.43306016922,
    "gps_code": "EGPF",
    "iata_code": "GLA"
  },
  {
    "id": "bd67e026-3ca5-4945-bb04-b1a8888501f5",
    "name": "Edinburgh Airport",
    "is_hub": false,
    "is_destination": false,
    "type": "large_airport",
    "country": "United Kingdom",
    "city": "Edinburgh",
    "latitude": 55.95000076293945,
    "longitude": -3.372499942779541,
    "gps_code": "EGPH",
    "iata_code": "EDI"
  },
  {
    "id": "f4159a61-52ae-48c7-90fd-4798a31538eb",
    "name": "Norwich International Airport",
    "is_hub": false,
    "is_destination": false,
    "type": "large_airport",
    "country": "United Kingdom",
    "city": "Norwich",
    "latitude": 52.6758003235,
    "longitude": 1.28278005123,
    "gps_code": "EGSH",
    "iata_code": "NWI"
  },
  {
    "id": "a275b1be-b5ef-4af0-b13e-cc155a30ff6a",
    "name": "London Stansted Airport",
    "is_hub": false,
    "is_destination": true,
    "type": "large_airport",
    "country": "United Kingdom",
    "city": "London",
    "latitude": 51.8849983215,
    "longitude": 0.234999999404,
    "gps_code": "EGSS",
    "iata_code": "STN"
  },
  {
    "id": "e532f6c3-15de-4c2e-a472-ce61ee4f0d95",
    "name": "Exeter International Airport",
    "is_hub": false,
    "is_destination": false,
    "type": "large_airport",
    "country": "United Kingdom",
    "city": "Exeter",
    "latitude": 50.73440170288086,
    "longitude": -3.4138898849487305,
    "gps_code": "EGTE",
    "iata_code": "EXT"
  },
  {
    "id": "3fef6be9-4f4e-460d-a2bb-f89367e9492c",
    "name": "RAF Lakenheath",
    "is_hub": false,
    "is_destination": false,
    "type": "large_airport",
    "country": "United Kingdom",
    "city": "Lakenheath",
    "latitude": 52.409301757799994,
    "longitude": 0.56099998951,
    "gps_code": "EGUL",
    "iata_code": "LKZ"
  },
  {
    "id": "3f5d8f7f-032c-4c55-aa72-180a3d3e3a19",
    "name": "RAF Mildenhall",
    "is_hub": false,
    "is_destination": false,
    "type": "large_airport",
    "country": "United Kingdom",
    "city": "Mildenhall",
    "latitude": 52.361900329589844,
    "longitude": 0.48640599846839905,
    "gps_code": "EGUN",
    "iata_code": "MHZ"
  },
  {
    "id": "e6e90f08-4eea-45e8-a8d0-e9ecf9af7e1f",
    "name": "RAF Fairford",
    "is_hub": false,
    "is_destination": false,
    "type": "large_airport",
    "country": "United Kingdom",
    "city": "Fairford",
    "latitude": 51.6822013855,
    "longitude": -1.7900300025900002,
    "gps_code": "EGVA",
    "iata_code": "FFD"
  },
  {
    "id": "1d31e8f6-799b-4681-92f8-532013fdfd2d",
    "name": "RAF Brize Norton",
    "is_hub": false,
    "is_destination": false,
    "type": "large_airport",
    "country": "United Kingdom",
    "city": "Brize Norton",
    "latitude": 51.75,
    "longitude": -1.58362,
    "gps_code": "EGVN",
    "iata_code": "BZZ"
  },
  {
    "id": "fa013ed5-876c-4ea9-97cb-e41e23e4e499",
    "name": "RAF Northolt",
    "is_hub": false,
    "is_destination": true,
    "type": "medium_airport",
    "country": "United Kingdom",
    "city": "London",
    "latitude": 51.553001403799996,
    "longitude": -0.418166995049,
    "gps_code": "EGWU",
    "iata_code": "NHT"
  },
  {
    "id": "80d98275-4254-409f-a846-51211d3ce18e",
    "name": "Amsterdam Airport Schiphol",
    "is_hub": true,
    "is_destination": false,
    "type": "large_airport",
    "country": "Netherlands",
    "city": "Amsterdam",
    "latitude": 52.308601,
    "longitude": 4.76389,
    "gps_code": "EHAM",
    "iata_code": "AMS"
  },
  {
    "id": "675b4f3f-9c54-42db-953b-9e8eb83dddab",
    "name": "Eindhoven Airport",
    "is_hub": false,
    "is_destination": false,
    "type": "large_airport",
    "country": "Netherlands",
    "city": "Eindhoven",
    "latitude": 51.4500999451,
    "longitude": 5.37452983856,
    "gps_code": "EHEH",
    "iata_code": "EIN"
  },
  {
    "id": "71f82c1f-36ed-4071-be13-7564817ea4bf",
    "name": "Cork Airport",
    "is_hub": false,
    "is_destination": false,
    "type": "large_airport",
    "country": "Ireland",
    "city": "Cork",
    "latitude": 51.84130096435547,
    "longitude": -8.491109848022461,
    "gps_code": "EICK",
    "iata_code": "ORK"
  },
  {
    "id": "00d7f6cd-caba-4462-9bf6-288662a7b8d0",
    "name": "Dublin Airport",
    "is_hub": false,
    "is_destination": false,
    "type": "large_airport",
    "country": "Ireland",
    "city": "Dublin",
    "latitude": 53.421299,
    "longitude": -6.27007,
    "gps_code": "EIDW",
    "iata_code": "DUB"
  },
  {
    "id": "599abb01-9389-40d4-ab55-1d3fe30ee856",
    "name": "Shannon Airport",
    "is_hub": false,
    "is_destination": false,
    "type": "large_airport",
    "country": "Ireland",
    "city": "Shannon",
    "latitude": 52.702,
    "longitude": -8.92482,
    "gps_code": "EINN",
    "iata_code": "SNN"
  },
  {
    "id": "c5afcee2-c0fa-4f68-9a8f-0ccf103b8f0b",
    "name": "Billund Airport",
    "is_hub": false,
    "is_destination": false,
    "type": "large_airport",
    "country": "Denmark",
    "city": "Billund",
    "latitude": 55.7402992249,
    "longitude": 9.15178012848,
    "gps_code": "EKBI",
    "iata_code": "BLL"
  },
  {
    "id": "cc03ab01-d41c-4837-a3a9-9c2a6e70a2e4",
    "name": "Copenhagen Kastrup Airport",
    "is_hub": false,
    "is_destination": false,
    "type": "large_airport",
    "country": "Denmark",
    "city": "Copenhagen",
    "latitude": 55.617900848389,
    "longitude": 12.656000137329,
    "gps_code": "EKCH",
    "iata_code": "CPH"
  },
  {
    "id": "85df3bfd-5a3b-407c-8f6f-0310252332c2",
    "name": "Aalborg Airport",
    "is_hub": false,
    "is_destination": false,
    "type": "large_airport",
    "country": "Denmark",
    "city": "Aalborg",
    "latitude": 57.0927589138,
    "longitude": 9.84924316406,
    "gps_code": "EKYT",
    "iata_code": "AAL"
  },
  {
    "id": "052d88f9-cae6-4b76-8eae-75676823896d",
    "name": "Luxembourg-Findel International Airport",
    "is_hub": false,
    "is_destination": false,
    "type": "large_airport",
    "country": "Luxembourg",
    "city": "Luxembourg",
    "latitude": 49.6233333,
    "longitude": 6.2044444,
    "gps_code": "ELLX",
    "iata_code": "LUX"
  },
  {
    "id": "664fc3b0-609b-499f-ad07-8797bd994f3a",
    "name": "Bod\u00f8 Airport",
    "is_hub": false,
    "is_destination": false,
    "type": "large_airport",
    "country": "Norway",
    "city": "Bod\u00f8",
    "latitude": 67.26920318603516,
    "longitude": 14.365300178527832,
    "gps_code": "ENBO",
    "iata_code": "BOO"
  },
  {
    "id": "006d7a79-dcb0-4e75-b7b4-a53fb650619e",
    "name": "Bergen Airport Flesland",
    "is_hub": false,
    "is_destination": false,
    "type": "large_airport",
    "country": "Norway",
    "city": "Bergen",
    "latitude": 60.29339981,
    "longitude": 5.218140125,
    "gps_code": "ENBR",
    "iata_code": "BGO"
  },
  {
    "id": "44d4731c-3788-42d4-8b33-1839a3621b37",
    "name": "Oslo Gardermoen Airport",
    "is_hub": false,
    "is_destination": false,
    "type": "large_airport",
    "country": "Norway",
    "city": "Oslo",
    "latitude": 60.193901062012,
    "longitude": 11.100399971008,
    "gps_code": "ENGM",
    "iata_code": "OSL"
  },
  {
    "id": "a1830160-f6ef-4616-95d6-b064c91c5d38",
    "name": "Troms\u00f8 Airport",
    "is_hub": false,
    "is_destination": false,
    "type": "large_airport",
    "country": "Norway",
    "city": "Troms\u00f8",
    "latitude": 69.68329620361328,
    "longitude": 18.918899536132812,
    "gps_code": "ENTC",
    "iata_code": "TOS"
  },
  {
    "id": "e831a944-a34b-482b-8a0e-3abcc65cb8b5",
    "name": "Trondheim Airport V\u00e6rnes",
    "is_hub": false,
    "is_destination": false,
    "type": "large_airport",
    "country": "Norway",
    "city": "Trondheim",
    "latitude": 63.4578018,
    "longitude": 10.9239998,
    "gps_code": "ENVA",
    "iata_code": "TRD"
  },
  {
    "id": "d82f5d18-1ff0-44cf-a7c5-55f9fc25d88d",
    "name": "Stavanger Airport Sola",
    "is_hub": false,
    "is_destination": false,
    "type": "large_airport",
    "country": "Norway",
    "city": "Stavanger",
    "latitude": 58.876701354,
    "longitude": 5.6377801895,
    "gps_code": "ENZV",
    "iata_code": "SVG"
  },
  {
    "id": "52eb03cb-1704-4378-b152-cad58aed9154",
    "name": "Gda\u0144sk Lech Wa\u0142\u0119sa Airport",
    "is_hub": false,
    "is_destination": false,
    "type": "large_airport",
    "country": "Poland",
    "city": "Gda\u0144sk",
    "latitude": 54.377601623535156,
    "longitude": 18.46619987487793,
    "gps_code": "EPGD",
    "iata_code": "GDN"
  },
  {
    "id": "85e81061-43ac-4879-903b-16b809f1c036",
    "name": "Krak\u00f3w John Paul II International Airport",
    "is_hub": false,
    "is_destination": false,
    "type": "large_airport",
    "country": "Poland",
    "city": "Krak\u00f3w",
    "latitude": 50.077702,
    "longitude": 19.7848,
    "gps_code": "EPKK",
    "iata_code": "KRK"
  },
  {
    "id": "baaa096b-88b9-4da9-a387-2f4fda0a941f",
    "name": "Katowice International Airport",
    "is_hub": false,
    "is_destination": false,
    "type": "large_airport",
    "country": "Poland",
    "city": "Katowice",
    "latitude": 50.4743,
    "longitude": 19.08,
    "gps_code": "EPKT",
    "iata_code": "KTW"
  },
  {
    "id": "c08f2f6f-5f85-4976-8cd9-8b32ba7ec846",
    "name": "Modlin Airport",
    "is_hub": false,
    "is_destination": true,
    "type": "large_airport",
    "country": "Poland",
    "city": "Warsaw",
    "latitude": 52.451099,
    "longitude": 20.6518,
    "gps_code": "EPMO",
    "iata_code": "WMI"
  },
  {
    "id": "f105651c-c182-49b4-a2c6-4e1e381047ad",
    "name": "Pozna\u0144-\u0141awica Airport",
    "is_hub": false,
    "is_destination": false,
    "type": "large_airport",
    "country": "Poland",
    "city": "Pozna\u0144",
    "latitude": 52.421001434299995,
    "longitude": 16.8262996674,
    "gps_code": "EPPO",
    "iata_code": "POZ"
  },
  {
    "id": "0069c396-023e-4eb5-968e-e92ef71686be",
    "name": "Warsaw Chopin Airport",
    "is_hub": false,
    "is_destination": true,
    "type": "large_airport",
    "country": "Poland",
    "city": "Warsaw",
    "latitude": 52.1656990051,
    "longitude": 20.967100143399996,
    "gps_code": "EPWA",
    "iata_code": "WAW"
  },
  {
    "id": "098d3a7f-65b0-4a65-a821-0585475db958",
    "name": "Copernicus Wroc\u0142aw Airport",
    "is_hub": false,
    "is_destination": false,
    "type": "large_airport",
    "country": "Poland",
    "city": "Wroc\u0142aw",
    "latitude": 51.1026992798,
    "longitude": 16.885799408,
    "gps_code": "EPWR",
    "iata_code": "WRO"
  },
  {
    "id": "f270ad35-35b5-4ea4-bddf-e5942c99d38d",
    "name": "Gothenburg-Landvetter Airport",
    "is_hub": false,
    "is_destination": false,
    "type": "large_airport",
    "country": "Sweden",
    "city": "Gothenburg",
    "latitude": 57.662799835205,
    "longitude": 12.279800415039,
    "gps_code": "ESGG",
    "iata_code": "GOT"
  },
  {
    "id": "107ba1b4-0dfc-4331-8919-bee7ee1228da",
    "name": "Malm\u00f6 Sturup Airport",
    "is_hub": false,
    "is_destination": false,
    "type": "large_airport",
    "country": "Sweden",
    "city": "Malm\u00f6",
    "latitude": 55.536305364,
    "longitude": 13.376197814900001,
    "gps_code": "ESMS",
    "iata_code": "MMX"
  },
  {
    "id": "fb6f3720-a03a-4c4f-a32e-fc2d7d0a1ae8",
    "name": "Lule\u00e5 Airport",
    "is_hub": false,
    "is_destination": false,
    "type": "large_airport",
    "country": "Sweden",
    "city": "Lule\u00e5",
    "latitude": 65.543800354004,
    "longitude": 22.121999740601,
    "gps_code": "ESPA",
    "iata_code": "LLA"
  },
  {
    "id": "5e37471c-d1fb-43b8-bfd0-be9fea2adabc",
    "name": "Stockholm-Arlanda Airport",
    "is_hub": false,
    "is_destination": false,
    "type": "large_airport",
    "country": "Sweden",
    "city": "Stockholm",
    "latitude": 59.651901245117,
    "longitude": 17.918600082397,
    "gps_code": "ESSA",
    "iata_code": "ARN"
  },
  {
    "id": "d34baea9-19a8-4717-8f7c-30065dea3431",
    "name": "Ramstein Air Base",
    "is_hub": false,
    "is_destination": false,
    "type": "large_airport",
    "country": "Germany",
    "city": "Ramstein",
    "latitude": 49.4369010925293,
    "longitude": 7.600279808044434,
    "gps_code": "ETAR",
    "iata_code": "RMS"
  },
  {
    "id": "d6e51f37-0b93-4687-a2c1-1dc45e6b37a3",
    "name": "Riga International Airport",
    "is_hub": false,
    "is_destination": false,
    "type": "large_airport",
    "country": "Latvia",
    "city": "Riga",
    "latitude": 56.92359924316406,
    "longitude": 23.971099853515625,
    "gps_code": "EVRA",
    "iata_code": "RIX"
  },
  {
    "id": "79b0eda5-7dec-4424-9967-3a2faa83d847",
    "name": "Vilnius International Airport",
    "is_hub": false,
    "is_destination": false,
    "type": "large_airport",
    "country": "Lithuania",
    "city": "Vilnius",
    "latitude": 54.634102,
    "longitude": 25.285801,
    "gps_code": "EYVI",
    "iata_code": "VNO"
  },
  {
    "id": "83d3cacb-f884-45ba-8657-f5f81543ed37",
    "name": "Cape Town International Airport",
    "is_hub": false,
    "is_destination": true,
    "type": "large_airport",
    "country": "South Africa",
    "city": "Cape Town",
    "latitude": -33.9648017883,
    "longitude": 18.6016998291,
    "gps_code": "FACT",
    "iata_code": "CPT"
  },
  {
    "id": "9968e2fd-0e05-4698-bbd6-1988902bdcaa",
    "name": "George Airport",
    "is_hub": false,
    "is_destination": false,
    "type": "large_airport",
    "country": "South Africa",
    "city": "George",
    "latitude": -34.0056,
    "longitude": 22.378902,
    "gps_code": "FAGG",
    "iata_code": "GRJ"
  },
  {
    "id": "7feffb66-d6d1-48b0-8a9b-537e4cb4a807",
    "name": "Rand Airport",
    "is_hub": false,
    "is_destination": true,
    "type": "medium_airport",
    "country": "South Africa",
    "city": "Johannesburg",
    "latitude": -26.2425003052,
    "longitude": 28.1511993408,
    "gps_code": "FAGM",
    "iata_code": "QRA"
  },
  {
    "id": "8c125470-0ab2-43c3-bc28-8e55f1008bf9",
    "name": "OR Tambo International Airport",
    "is_hub": false,
    "is_destination": true,
    "type": "large_airport",
    "country": "South Africa",
    "city": "Johannesburg",
    "latitude": -26.1392,
    "longitude": 28.246,
    "gps_code": "FAOR",
    "iata_code": "JNB"
  },
  {
    "id": "331ac3d7-6b35-409d-ad15-8b214cb947f2",
    "name": "Lanseria Airport",
    "is_hub": false,
    "is_destination": true,
    "type": "medium_airport",
    "country": "South Africa",
    "city": "Johannesburg",
    "latitude": -25.938499450699997,
    "longitude": 27.9260997772,
    "gps_code": "FALA",
    "iata_code": "HLA"
  },
  {
    "id": "8cbb2da2-6159-41ed-9a60-0ee191481951",
    "name": "King Shaka International Airport",
    "is_hub": false,
    "is_destination": true,
    "type": "large_airport",
    "country": "South Africa",
    "city": "Durban",
    "latitude": -29.6144444444,
    "longitude": 31.1197222222,
    "gps_code": "FALE",
    "iata_code": "DUR"
  },
  {
    "id": "0960f27e-d0e8-4710-a751-20b697b53270",
    "name": "OR Tambo International Airport",
    "is_hub": false,
    "is_destination": true,
    "type": "large_airport",
    "country": "South Africa",
    "city": "Johannesburg",
    "latitude": -26.1392,
    "longitude": 28.246,
    "gps_code": "FAOR",
    "iata_code": "JNB"
  },
  {
    "id": "3c106b5b-5ce4-4576-aaf8-a876f97a0277",
    "name": "Virginia Airport",
    "is_hub": false,
    "is_destination": true,
    "type": "medium_airport",
    "country": "South Africa",
    "city": "Durban",
    "latitude": -29.770599365234375,
    "longitude": 31.058399200439453,
    "gps_code": "FAVG",
    "iata_code": "VIR"
  },
  {
    "id": "5c5d2b26-a480-49d2-9764-c77c8009164c",
    "name": "Wonderboom Airport",
    "is_hub": false,
    "is_destination": true,
    "type": "medium_airport",
    "country": "South Africa",
    "city": "Pretoria",
    "latitude": -25.6539,
    "longitude": 28.224199,
    "gps_code": "FAWB",
    "iata_code": "PRY"
  },
  {
    "id": "7cd8825c-0562-4d6f-834f-605891e0d620",
    "name": "Waterkloof Air Force Base",
    "is_hub": false,
    "is_destination": true,
    "type": "medium_airport",
    "country": "South Africa",
    "city": "Pretoria",
    "latitude": -25.829999923699997,
    "longitude": 28.222499847399998,
    "gps_code": "FAWK",
    "iata_code": "WKF"
  },
  {
    "id": "f1190018-59ec-4e15-9b26-229f4be54722",
    "name": "Sir Seretse Khama International Airport",
    "is_hub": false,
    "is_destination": false,
    "type": "large_airport",
    "country": "Botswana",
    "city": "Gaborone",
    "latitude": -24.555201,
    "longitude": 25.9182,
    "gps_code": "FBSK",
    "iata_code": "GBE"
  },
  {
    "id": "d43961f7-af57-4831-a2a3-72ef3bf74c7c",
    "name": "Sir Seewoosagur Ramgoolam International Airport",
    "is_hub": false,
    "is_destination": false,
    "type": "large_airport",
    "country": "Mauritius",
    "city": "Port Louis",
    "latitude": -20.430201,
    "longitude": 57.683601,
    "gps_code": "FIMP",
    "iata_code": "MRU"
  },
  {
    "id": "76ae0804-7725-4ac5-b443-08836ad68a5d",
    "name": "Kenneth Kaunda International Airport Lusaka",
    "is_hub": false,
    "is_destination": true,
    "type": "large_airport",
    "country": "Zambia",
    "city": "Lusaka",
    "latitude": -15.3308000565,
    "longitude": 28.4526004791,
    "gps_code": "FLKK",
    "iata_code": "LUN"
  },
  {
    "id": "baeced85-46f3-4c6d-a8fd-a5beadf90604",
    "name": "Ivato Airport",
    "is_hub": false,
    "is_destination": true,
    "type": "large_airport",
    "country": "Madagascar",
    "city": "Antananarivo",
    "latitude": -18.7969,
    "longitude": 47.478802,
    "gps_code": "FMMI",
    "iata_code": "TNR"
  },
  {
    "id": "989ba55c-c6f7-46ad-8365-7012b421f959",
    "name": "Quatro de Fevereiro Airport",
    "is_hub": false,
    "is_destination": true,
    "type": "large_airport",
    "country": "Angola",
    "city": "Luanda",
    "latitude": -8.85837,
    "longitude": 13.2312,
    "gps_code": "FNLU",
    "iata_code": "LAD"
  },
  {
    "id": "d0cab874-5226-4efe-97b9-c45f799c398b",
    "name": "Maputo Airport",
    "is_hub": false,
    "is_destination": true,
    "type": "large_airport",
    "country": "Mozambique",
    "city": "Maputo",
    "latitude": -25.920799,
    "longitude": 32.572601,
    "gps_code": "FQMA",
    "iata_code": "MPM"
  },
  {
    "id": "66b7b5c3-9629-458f-bec2-6c514a27a844",
    "name": "Seychelles International Airport",
    "is_hub": false,
    "is_destination": false,
    "type": "large_airport",
    "country": "Seychelles",
    "city": "Mahe Island",
    "latitude": -4.67434,
    "longitude": 55.521801,
    "gps_code": "FSIA",
    "iata_code": "SEZ"
  },
  {
    "id": "eb9aee69-02eb-4041-a338-f7c4aca2c553",
    "name": "N'Djamena International Airport",
    "is_hub": false,
    "is_destination": false,
    "type": "large_airport",
    "country": "Chad",
    "city": "N'Djamena",
    "latitude": 12.1337,
    "longitude": 15.034,
    "gps_code": "FTTJ",
    "iata_code": "NDJ"
  },
  {
    "id": "5a747df3-8b1c-438b-92ca-c6f9f5ceeb4b",
    "name": "Robert Gabriel Mugabe International Airport",
    "is_hub": false,
    "is_destination": true,
    "type": "large_airport",
    "country": "Zimbabwe",
    "city": "Harare",
    "latitude": -17.931801,
    "longitude": 31.0928,
    "gps_code": "FVRG",
    "iata_code": "HRE"
  },
  {
    "id": "1df9780c-0f7b-4c9c-814e-b1066ba7796f",
    "name": "Hosea Kutako International Airport",
    "is_hub": false,
    "is_destination": false,
    "type": "large_airport",
    "country": "Namibia",
    "city": "Windhoek",
    "latitude": -22.4799,
    "longitude": 17.4709,
    "gps_code": "FYWH",
    "iata_code": "WDH"
  },
  {
    "id": "7a08e573-6d52-4732-9a17-223bf606b690",
    "name": "Ndjili International Airport",
    "is_hub": false,
    "is_destination": false,
    "type": "large_airport",
    "country": "Democratic Republic of the Congo",
    "city": "Kinshasa",
    "latitude": -4.38575,
    "longitude": 15.4446,
    "gps_code": "FZAA",
    "iata_code": "FIH"
  },
  {
    "id": "6d14bb9b-8a28-4328-993b-cd1901c20e79",
    "name": "Modibo Keita International Airport",
    "is_hub": false,
    "is_destination": true,
    "type": "large_airport",
    "country": "Mali",
    "city": "Bamako",
    "latitude": 12.5335,
    "longitude": -7.94994,
    "gps_code": "GABS",
    "iata_code": "BKO"
  },
  {
    "id": "8d63efea-4abc-42f0-8650-dd6303efb8af",
    "name": "La Palma Airport",
    "is_hub": false,
    "is_destination": false,
    "type": "large_airport",
    "country": "Spain",
    "city": "Sta Cruz de la Palma, La Palma Island",
    "latitude": 28.626499,
    "longitude": -17.7556,
    "gps_code": "GCLA",
    "iata_code": "SPC"
  },
  {
    "id": "5aaaba63-4b10-4d09-a9cb-fa81620565f1",
    "name": "Gran Canaria Airport",
    "is_hub": false,
    "is_destination": false,
    "type": "large_airport",
    "country": "Spain",
    "city": "Gran Canaria Island",
    "latitude": 27.931900024414062,
    "longitude": -15.38659954071045,
    "gps_code": "GCLP",
    "iata_code": "LPA"
  },
  {
    "id": "2d425796-24fb-4c95-a903-c6ec0eb4b3a4",
    "name": "Tenerife South Airport",
    "is_hub": false,
    "is_destination": false,
    "type": "large_airport",
    "country": "Spain",
    "city": "Tenerife Island",
    "latitude": 28.044500351,
    "longitude": -16.5725002289,
    "gps_code": "GCTS",
    "iata_code": "TFS"
  },
  {
    "id": "5af164c5-786e-461e-959c-48a11b73b91f",
    "name": "Tenerife Norte Airport",
    "is_hub": false,
    "is_destination": false,
    "type": "large_airport",
    "country": "Spain",
    "city": "Tenerife Island",
    "latitude": 28.4827003479,
    "longitude": -16.3414993286,
    "gps_code": "GCXO",
    "iata_code": "TFN"
  },
  {
    "id": "5810968c-7217-4659-a5ae-3d754795c944",
    "name": "Lungi International Airport",
    "is_hub": false,
    "is_destination": false,
    "type": "large_airport",
    "country": "Sierra Leone",
    "city": "Freetown",
    "latitude": 8.61644,
    "longitude": -13.1955,
    "gps_code": "GFLL",
    "iata_code": "FNA"
  },
  {
    "id": "61517065-c1bc-4091-9e89-18a7560f67ba",
    "name": "Roberts International Airport",
    "is_hub": false,
    "is_destination": false,
    "type": "large_airport",
    "country": "Liberia",
    "city": "Monrovia",
    "latitude": 6.23379,
    "longitude": -10.3623,
    "gps_code": "GLRB",
    "iata_code": "ROB"
  },
  {
    "id": "97a565e6-5132-4801-a588-89d6839cc75e",
    "name": "Rabat-Sal\u00e9 Airport",
    "is_hub": false,
    "is_destination": true,
    "type": "medium_airport",
    "country": "Morocco",
    "city": "Rabat",
    "latitude": 34.051498,
    "longitude": -6.75152,
    "gps_code": "GMME",
    "iata_code": "RBA"
  },
  {
    "id": "b674c5c8-807d-41d5-b33e-3823382dcd9e",
    "name": "Mohammed V International Airport",
    "is_hub": false,
    "is_destination": true,
    "type": "large_airport",
    "country": "Morocco",
    "city": "Casablanca",
    "latitude": 33.36750030517578,
    "longitude": -7.589970111846924,
    "gps_code": "GMMN",
    "iata_code": "CMN"
  },
  {
    "id": "b7094365-b1c6-4694-8256-09dc5c1b9a00",
    "name": "Blaise Diagne International Airport",
    "is_hub": false,
    "is_destination": false,
    "type": "large_airport",
    "country": "Senegal",
    "city": "Dakar",
    "latitude": 14.67,
    "longitude": -17.073333,
    "gps_code": "GOBD",
    "iata_code": "DSS"
  },
  {
    "id": "5d8d3187-2f48-48cf-ade3-13197e988634",
    "name": "L\u00e9opold S\u00e9dar Senghor International Airport",
    "is_hub": false,
    "is_destination": false,
    "type": "large_airport",
    "country": "Senegal",
    "city": "Dakar",
    "latitude": 14.739700317382812,
    "longitude": -17.49020004272461,
    "gps_code": "GOOY",
    "iata_code": "DKR"
  },
  {
    "id": "82ecf0f2-a826-4872-9fc5-7e3d9d785a21",
    "name": "Nouakchott\u2013Oumtounsy International Airport",
    "is_hub": false,
    "is_destination": false,
    "type": "large_airport",
    "country": "Mauritania",
    "city": "Nouakchott",
    "latitude": 18.31,
    "longitude": -15.9697222,
    "gps_code": "GQNO",
    "iata_code": "NKC"
  },
  {
    "id": "f7f7628a-c46d-4a70-a3f8-f4bbd666edc1",
    "name": "Am\u00edlcar Cabral International Airport",
    "is_hub": false,
    "is_destination": false,
    "type": "large_airport",
    "country": "Cape Verde",
    "city": "Espargos",
    "latitude": 16.7414,
    "longitude": -22.9494,
    "gps_code": "GVAC",
    "iata_code": "SID"
  },
  {
    "id": "9fa37f4a-3d99-43c8-885f-575294d43da4",
    "name": "Addis Ababa Bole International Airport",
    "is_hub": false,
    "is_destination": true,
    "type": "large_airport",
    "country": "Ethiopia",
    "city": "Addis Ababa",
    "latitude": 8.97789001465,
    "longitude": 38.799301147499996,
    "gps_code": "HAAB",
    "iata_code": "ADD"
  },
  {
    "id": "37227098-4cf5-47d7-9fd6-c228c8efd295",
    "name": "Aden Adde International Airport",
    "is_hub": false,
    "is_destination": true,
    "type": "medium_airport",
    "country": "Somalia",
    "city": "Mogadishu",
    "latitude": 2.0144400596618652,
    "longitude": 45.3046989440918,
    "gps_code": "HCMM",
    "iata_code": "MGQ"
  },
  {
    "id": "798d811b-1a43-49ae-b34e-2e2e46e88d29",
    "name": "El Nouzha Airport",
    "is_hub": false,
    "is_destination": true,
    "type": "medium_airport",
    "country": "Egypt",
    "city": "Alexandria",
    "latitude": 31.183900833129883,
    "longitude": 29.94890022277832,
    "gps_code": "HEAX",
    "iata_code": "ALY"
  },
  {
    "id": "eb69955e-0a1a-4bf3-bb02-b6ba4310a252",
    "name": "Borg El Arab International Airport",
    "is_hub": false,
    "is_destination": true,
    "type": "medium_airport",
    "country": "Egypt",
    "city": "Alexandria",
    "latitude": 30.917699813842773,
    "longitude": 29.696399688720703,
    "gps_code": "HEBA",
    "iata_code": "HBE"
  },
  {
    "id": "31df793d-221b-48a3-99cc-af2ea7d76687",
    "name": "Cairo International Airport",
    "is_hub": false,
    "is_destination": true,
    "type": "large_airport",
    "country": "Egypt",
    "city": "Cairo",
    "latitude": 30.12190055847168,
    "longitude": 31.40559959411621,
    "gps_code": "HECA",
    "iata_code": "CAI"
  },
  {
    "id": "6f4e00fb-a717-4886-ac04-a6fd1e9bb3f5",
    "name": "Hurghada International Airport",
    "is_hub": false,
    "is_destination": false,
    "type": "large_airport",
    "country": "Egypt",
    "city": "Hurghada",
    "latitude": 27.178300857543945,
    "longitude": 33.799400329589844,
    "gps_code": "HEGN",
    "iata_code": "HRG"
  },
  {
    "id": "e9d041e8-a278-4542-9112-6adbaa4c0641",
    "name": "Luxor International Airport",
    "is_hub": false,
    "is_destination": false,
    "type": "large_airport",
    "country": "Egypt",
    "city": "Luxor",
    "latitude": 25.671,
    "longitude": 32.7066,
    "gps_code": "HELX",
    "iata_code": "LXR"
  },
  {
    "id": "eb4ee07b-ae5b-42b1-a0da-dcb12eb8f7e0",
    "name": "Jomo Kenyatta International Airport",
    "is_hub": false,
    "is_destination": true,
    "type": "large_airport",
    "country": "Kenya",
    "city": "Nairobi",
    "latitude": -1.31923997402,
    "longitude": 36.9277992249,
    "gps_code": "HKJK",
    "iata_code": "NBO"
  },
  {
    "id": "fa092c95-abce-4263-a5a6-ce88b6f92f14",
    "name": "Mombasa Moi International Airport",
    "is_hub": false,
    "is_destination": false,
    "type": "large_airport",
    "country": "Kenya",
    "city": "Mombasa",
    "latitude": -4.034830093383789,
    "longitude": 39.594200134277344,
    "gps_code": "HKMO",
    "iata_code": "MBA"
  },
  {
    "id": "477bd847-939c-4013-8ab8-49581d73e073",
    "name": "Nairobi Wilson Airport",
    "is_hub": false,
    "is_destination": true,
    "type": "medium_airport",
    "country": "Kenya",
    "city": "Nairobi",
    "latitude": -1.321720004081726,
    "longitude": 36.81480026245117,
    "gps_code": "HKNW",
    "iata_code": "WIL"
  },
  {
    "id": "f6e5f490-e9ff-446f-bbdb-d5e7bd52aa61",
    "name": "Tripoli International Airport",
    "is_hub": false,
    "is_destination": false,
    "type": "large_airport",
    "country": "Libya",
    "city": "Tripoli",
    "latitude": 32.6635017395,
    "longitude": 13.1590003967,
    "gps_code": "HLLT",
    "iata_code": "TIP"
  },
  {
    "id": "78717cbd-fcb1-4c0f-960c-a7789662dcd1",
    "name": "Kigali International Airport",
    "is_hub": false,
    "is_destination": false,
    "type": "large_airport",
    "country": "Rwanda",
    "city": "Kigali",
    "latitude": -1.96863,
    "longitude": 30.1395,
    "gps_code": "HRYR",
    "iata_code": "KGL"
  },
  {
    "id": "52e1b804-c328-4915-8af4-1fdf282fa5bf",
    "name": "Juba International Airport",
    "is_hub": false,
    "is_destination": false,
    "type": "large_airport",
    "country": "South Sudan",
    "city": "Juba",
    "latitude": 4.87201023102,
    "longitude": 31.6011009216,
    "gps_code": "HSSJ",
    "iata_code": "JUB"
  },
  {
    "id": "ccd7c3bb-e5ab-4840-8131-a723d6ad1b68",
    "name": "Khartoum International Airport",
    "is_hub": false,
    "is_destination": true,
    "type": "large_airport",
    "country": "Sudan",
    "city": "Khartoum",
    "latitude": 15.589500427246094,
    "longitude": 32.553199768066406,
    "gps_code": "HSSS",
    "iata_code": "KRT"
  },
  {
    "id": "d2589640-4a82-4bf2-bab6-f98cbe5b966b",
    "name": "Julius Nyerere International Airport",
    "is_hub": false,
    "is_destination": true,
    "type": "large_airport",
    "country": "Tanzania",
    "city": "Dar es Salaam",
    "latitude": -6.87811,
    "longitude": 39.202599,
    "gps_code": "HTDA",
    "iata_code": "DAR"
  },
  {
    "id": "b4c62723-bea8-4395-93cd-efe61610abda",
    "name": "Abeid Amani Karume International Airport",
    "is_hub": false,
    "is_destination": false,
    "type": "large_airport",
    "country": "Tanzania",
    "city": "Zanzibar",
    "latitude": -6.22202,
    "longitude": 39.224899,
    "gps_code": "HTZA",
    "iata_code": "ZNZ"
  },
  {
    "id": "abf54be0-ab56-4447-aab3-f0eb3f3275ae",
    "name": "Entebbe International Airport",
    "is_hub": false,
    "is_destination": true,
    "type": "large_airport",
    "country": "Uganda",
    "city": "Kampala",
    "latitude": 0.042386,
    "longitude": 32.443501,
    "gps_code": "HUEN",
    "iata_code": "EBB"
  },
  {
    "id": "1bde4fef-3b5e-4772-afe1-7209473074f5",
    "name": "O R Tambo International",
    "is_hub": false,
    "is_destination": true,
    "type": "large_airport",
    "country": "South Africa",
    "city": "Johannesburg",
    "latitude": -26.1392,
    "longitude": 28.246,
    "gps_code": "FAOR",
    "iata_code": "JNB"
  },
  {
    "id": "156c7d63-8272-4f2d-85ea-a2fbf8576ce0",
    "name": "Albuquerque International Sunport",
    "is_hub": false,
    "is_destination": false,
    "type": "large_airport",
    "country": "United States",
    "city": "Albuquerque",
    "latitude": 35.040199,
    "longitude": -106.609001,
    "gps_code": "KABQ",
    "iata_code": "ABQ"
  },
  {
    "id": "81731999-927a-4dd6-bc13-72267c487c0c",
    "name": "Joint Base Andrews",
    "is_hub": false,
    "is_destination": false,
    "type": "large_airport",
    "country": "United States",
    "city": "Camp Springs",
    "latitude": 38.810799,
    "longitude": -76.866997,
    "gps_code": "KADW",
    "iata_code": "ADW"
  },
  {
    "id": "42e3374c-01e0-4ad5-abed-8233e1cc7840",
    "name": "Alexandria International Airport",
    "is_hub": false,
    "is_destination": true,
    "type": "medium_airport",
    "country": "United States",
    "city": "Alexandria",
    "latitude": 31.32740020751953,
    "longitude": -92.54979705810547,
    "gps_code": "KAEX",
    "iata_code": "AEX"
  },
  {
    "id": "58f609ae-3286-48dc-96e8-7f892e8daca3",
    "name": "Fort Worth Alliance Airport",
    "is_hub": false,
    "is_destination": false,
    "type": "large_airport",
    "country": "United States",
    "city": "Fort Worth",
    "latitude": 32.9875984192,
    "longitude": -97.31880187990001,
    "gps_code": "KAFW",
    "iata_code": "AFW"
  },
  {
    "id": "bca0e8c2-1185-4f7c-bfb6-1cf60e360f75",
    "name": "Augusta Regional At Bush Field",
    "is_hub": false,
    "is_destination": false,
    "type": "large_airport",
    "country": "United States",
    "city": "Augusta",
    "latitude": 33.36989974975586,
    "longitude": -81.9645004272461,
    "gps_code": "KAGS",
    "iata_code": "AGS"
  },
  {
    "id": "47d8b10b-7976-49dc-950b-307a251f5ff1",
    "name": "Rick Husband Amarillo International Airport",
    "is_hub": false,
    "is_destination": false,
    "type": "large_airport",
    "country": "United States",
    "city": "Amarillo",
    "latitude": 35.219398,
    "longitude": -101.706001,
    "gps_code": "KAMA",
    "iata_code": "AMA"
  },
  {
    "id": "a38d6959-a4cb-46ae-a961-106ccdb35bc9",
    "name": "Hartsfield Jackson Atlanta International Airport",
    "is_hub": true,
    "is_destination": false,
    "type": "large_airport",
    "country": "United States",
    "city": "Atlanta",
    "latitude": 33.6367,
    "longitude": -84.428101,
    "gps_code": "KATL",
    "iata_code": "ATL"
  },
  {
    "id": "33774086-29b5-42d8-bd5f-a2d16e483dea",
    "name": "Austin Bergstrom International Airport",
    "is_hub": false,
    "is_destination": false,
    "type": "large_airport",
    "country": "United States",
    "city": "Austin",
    "latitude": 30.194499969482422,
    "longitude": -97.6698989868164,
    "gps_code": "KAUS",
    "iata_code": "AUS"
  },
  {
    "id": "3c3f66f2-3802-440e-b2d3-be23f09ff8d4",
    "name": "Asheville Regional Airport",
    "is_hub": false,
    "is_destination": false,
    "type": "large_airport",
    "country": "United States",
    "city": "Asheville",
    "latitude": 35.43619918823242,
    "longitude": -82.54180145263672,
    "gps_code": "KAVL",
    "iata_code": "AVL"
  },
  {
    "id": "4d07efb7-eb85-4f81-bda7-e8113a56b439",
    "name": "Chandler Field",
    "is_hub": false,
    "is_destination": true,
    "type": "medium_airport",
    "country": "United States",
    "city": "Alexandria",
    "latitude": 45.8662986755,
    "longitude": -95.39469909670001,
    "gps_code": "KAXN",
    "iata_code": "AXN"
  },
  {
    "id": "4b674ae9-47da-496c-9571-625c04279ec6",
    "name": "Beale Air Force Base",
    "is_hub": false,
    "is_destination": false,
    "type": "large_airport",
    "country": "United States",
    "city": "Marysville",
    "latitude": 39.136100769,
    "longitude": -121.43699646,
    "gps_code": "KBAB",
    "iata_code": "BAB"
  },
  {
    "id": "d22461ce-393d-4613-bc8c-e84906fc3b03",
    "name": "Barksdale Air Force Base",
    "is_hub": false,
    "is_destination": false,
    "type": "large_airport",
    "country": "United States",
    "city": "Bossier City",
    "latitude": 32.5018005371,
    "longitude": -93.6626968384,
    "gps_code": "KBAD",
    "iata_code": "BAD"
  },
  {
    "id": "85fd7149-ad4c-4046-a001-4947f5f0b7e8",
    "name": "Bradley International Airport",
    "is_hub": false,
    "is_destination": false,
    "type": "large_airport",
    "country": "United States",
    "city": "Hartford",
    "latitude": 41.9388999939,
    "longitude": -72.68319702149999,
    "gps_code": "KBDL",
    "iata_code": "BDL"
  },
  {
    "id": "d2b333dd-e82c-412d-88b6-67ea1f87853e",
    "name": "Boeing Field King County International Airport",
    "is_hub": false,
    "is_destination": false,
    "type": "large_airport",
    "country": "United States",
    "city": "Seattle",
    "latitude": 47.529998779296875,
    "longitude": -122.302001953125,
    "gps_code": "KBFI",
    "iata_code": "BFI"
  },
  {
    "id": "0ec6579a-cc9c-4859-bb97-4486f6d11b0b",
    "name": "Bangor International Airport",
    "is_hub": false,
    "is_destination": false,
    "type": "large_airport",
    "country": "United States",
    "city": "Bangor",
    "latitude": 44.80739974975586,
    "longitude": -68.8281021118164,
    "gps_code": "KBGR",
    "iata_code": "BGR"
  },
  {
    "id": "4df18167-c799-4b1e-8e72-9ef1b38430ef",
    "name": "Birmingham-Shuttlesworth International Airport",
    "is_hub": false,
    "is_destination": false,
    "type": "large_airport",
    "country": "United States",
    "city": "Birmingham",
    "latitude": 33.56290054,
    "longitude": -86.75350189,
    "gps_code": "KBHM",
    "iata_code": "BHM"
  },
  {
    "id": "a1e77e17-dc87-4bad-b694-bc405ba03579",
    "name": "Billings Logan International Airport",
    "is_hub": false,
    "is_destination": false,
    "type": "large_airport",
    "country": "United States",
    "city": "Billings",
    "latitude": 45.807701110839844,
    "longitude": -108.54299926757812,
    "gps_code": "KBIL",
    "iata_code": "BIL"
  },
  {
    "id": "5a35e51d-aad0-469e-a360-29e0ca842872",
    "name": "Scott AFB/Midamerica Airport",
    "is_hub": false,
    "is_destination": false,
    "type": "large_airport",
    "country": "United States",
    "city": "Belleville",
    "latitude": 38.5452,
    "longitude": -89.835197,
    "gps_code": "KBLV",
    "iata_code": "BLV"
  },
  {
    "id": "df046d78-80ec-4ecf-ae62-e557849758f0",
    "name": "Central Illinois Regional Airport at Bloomington-Normal",
    "is_hub": false,
    "is_destination": false,
    "type": "large_airport",
    "country": "United States",
    "city": "Bloomington/Normal",
    "latitude": 40.47710037,
    "longitude": -88.91590118,
    "gps_code": "KBMI",
    "iata_code": "BMI"
  },
  {
    "id": "0009e1da-1660-42a2-bfc8-264e0a483257",
    "name": "Nashville International Airport",
    "is_hub": false,
    "is_destination": false,
    "type": "large_airport",
    "country": "United States",
    "city": "Nashville",
    "latitude": 36.1245002746582,
    "longitude": -86.6781997680664,
    "gps_code": "KBNA",
    "iata_code": "BNA"
  },
  {
    "id": "f42dc319-2a33-46c9-99a4-2e1f840b8516",
    "name": "Boise Air Terminal/Gowen Field",
    "is_hub": false,
    "is_destination": false,
    "type": "large_airport",
    "country": "United States",
    "city": "Boise",
    "latitude": 43.5644,
    "longitude": -116.223,
    "gps_code": "KBOI",
    "iata_code": "BOI"
  },
  {
    "id": "dc666b45-5f1b-499f-85c5-afbdb14a650c",
    "name": "General Edward Lawrence Logan International Airport",
    "is_hub": false,
    "is_destination": false,
    "type": "large_airport",
    "country": "United States",
    "city": "Boston",
    "latitude": 42.36429977,
    "longitude": -71.00520325,
    "gps_code": "KBOS",
    "iata_code": "BOS"
  },
  {
    "id": "48de7188-098a-4cf3-b069-e61ebfe74982",
    "name": "Buffalo Niagara International Airport",
    "is_hub": false,
    "is_destination": false,
    "type": "large_airport",
    "country": "United States",
    "city": "Buffalo",
    "latitude": 42.94049835,
    "longitude": -78.73220062,
    "gps_code": "KBUF",
    "iata_code": "BUF"
  },
  {
    "id": "ebc000c4-4fff-49d6-91b7-aaf03d3a8895",
    "name": "Baltimore/Washington International Thurgood Marshall Airport",
    "is_hub": false,
    "is_destination": false,
    "type": "large_airport",
    "country": "United States",
    "city": "Baltimore",
    "latitude": 39.1754,
    "longitude": -76.668297,
    "gps_code": "KBWI",
    "iata_code": "BWI"
  },
  {
    "id": "18d3724e-9ec7-4f4e-abc4-e14a4976fed0",
    "name": "Columbia Metropolitan Airport",
    "is_hub": false,
    "is_destination": false,
    "type": "large_airport",
    "country": "United States",
    "city": "Columbia",
    "latitude": 33.93880081176758,
    "longitude": -81.11949920654297,
    "gps_code": "KCAE",
    "iata_code": "CAE"
  },
  {
    "id": "28846e72-c5ce-487a-a1d1-eccc0b03a796",
    "name": "Columbus Air Force Base",
    "is_hub": false,
    "is_destination": false,
    "type": "large_airport",
    "country": "United States",
    "city": "Columbus",
    "latitude": 33.6437988281,
    "longitude": -88.44380187990001,
    "gps_code": "KCBM",
    "iata_code": "CBM"
  },
  {
    "id": "4851261e-4722-47f9-ad6b-cc5b133cc199",
    "name": "Lovell Field",
    "is_hub": false,
    "is_destination": false,
    "type": "large_airport",
    "country": "United States",
    "city": "Chattanooga",
    "latitude": 35.035301208496094,
    "longitude": -85.20379638671875,
    "gps_code": "KCHA",
    "iata_code": "CHA"
  },
  {
    "id": "9bbfec41-58de-4fa8-91df-d5350a19481d",
    "name": "Charleston Air Force Base-International Airport",
    "is_hub": false,
    "is_destination": false,
    "type": "large_airport",
    "country": "United States",
    "city": "Charleston",
    "latitude": 32.89860153,
    "longitude": -80.04049683,
    "gps_code": "KCHS",
    "iata_code": "CHS"
  },
  {
    "id": "a57daa8c-1195-4ac5-837e-f6970caed1aa",
    "name": "The Eastern Iowa Airport",
    "is_hub": false,
    "is_destination": false,
    "type": "large_airport",
    "country": "United States",
    "city": "Cedar Rapids",
    "latitude": 41.884700775146484,
    "longitude": -91.71080017089844,
    "gps_code": "KCID",
    "iata_code": "CID"
  },
  {
    "id": "c7dd8160-aeee-41e1-8169-5f6fd2f0c4cc",
    "name": "Cleveland Hopkins International Airport",
    "is_hub": false,
    "is_destination": false,
    "type": "large_airport",
    "country": "United States",
    "city": "Cleveland",
    "latitude": 41.4117012024,
    "longitude": -81.8498001099,
    "gps_code": "KCLE",
    "iata_code": "CLE"
  },
  {
    "id": "d94b2abe-0107-4014-8807-19796a335b75",
    "name": "Charlotte Douglas International Airport",
    "is_hub": true,
    "is_destination": false,
    "type": "large_airport",
    "country": "United States",
    "city": "Charlotte",
    "latitude": 35.2140007019043,
    "longitude": -80.94309997558594,
    "gps_code": "KCLT",
    "iata_code": "CLT"
  },
  {
    "id": "378cf258-5933-46e2-8b37-fc4414d336aa",
    "name": "John Glenn Columbus International Airport",
    "is_hub": false,
    "is_destination": false,
    "type": "large_airport",
    "country": "United States",
    "city": "Columbus",
    "latitude": 39.998001,
    "longitude": -82.891899,
    "gps_code": "KCMH",
    "iata_code": "CMH"
  },
  {
    "id": "22111766-6378-4aed-aa82-dbbf077d6e79",
    "name": "City of Colorado Springs Municipal Airport",
    "is_hub": false,
    "is_destination": false,
    "type": "large_airport",
    "country": "United States",
    "city": "Colorado Springs",
    "latitude": 38.805801,
    "longitude": -104.700996,
    "gps_code": "KCOS",
    "iata_code": "COS"
  },
  {
    "id": "03d14453-4848-4ac0-8aeb-55466b9da569",
    "name": "Corpus Christi International Airport",
    "is_hub": false,
    "is_destination": false,
    "type": "large_airport",
    "country": "United States",
    "city": "Corpus Christi",
    "latitude": 27.77039909362793,
    "longitude": -97.5011978149414,
    "gps_code": "KCRP",
    "iata_code": "CRP"
  },
  {
    "id": "7bddb9d5-19ab-40b9-818a-755fb4c4fd93",
    "name": "Yeager Airport",
    "is_hub": false,
    "is_destination": false,
    "type": "large_airport",
    "country": "United States",
    "city": "Charleston",
    "latitude": 38.37310028076172,
    "longitude": -81.59320068359375,
    "gps_code": "KCRW",
    "iata_code": "CRW"
  },
  {
    "id": "bf42a4ed-72af-4905-becb-1dd60515e699",
    "name": "Cincinnati Northern Kentucky International Airport",
    "is_hub": false,
    "is_destination": false,
    "type": "large_airport",
    "country": "United States",
    "city": "Cincinnati",
    "latitude": 39.0488014221,
    "longitude": -84.6678009033,
    "gps_code": "KCVG",
    "iata_code": "CVG"
  },
  {
    "id": "30cf8c94-fbe5-48af-9c9a-076dddad3e8c",
    "name": "Cannon Air Force Base",
    "is_hub": false,
    "is_destination": false,
    "type": "large_airport",
    "country": "United States",
    "city": "Clovis",
    "latitude": 34.3828010559,
    "longitude": -103.321998596,
    "gps_code": "KCVS",
    "iata_code": "CVS"
  },
  {
    "id": "dfb4a391-d75b-4e48-8de0-202d9066f229",
    "name": "Conroe-North Houston Regional Airport",
    "is_hub": false,
    "is_destination": true,
    "type": "medium_airport",
    "country": "United States",
    "city": "Houston",
    "latitude": 30.351801,
    "longitude": -95.414497,
    "gps_code": "KCXO",
    "iata_code": "CXO"
  },
  {
    "id": "3a971746-d88d-4f38-8663-9448c67a6bfd",
    "name": "Daytona Beach International Airport",
    "is_hub": false,
    "is_destination": false,
    "type": "large_airport",
    "country": "United States",
    "city": "Daytona Beach",
    "latitude": 29.179899,
    "longitude": -81.058098,
    "gps_code": "KDAB",
    "iata_code": "DAB"
  },
  {
    "id": "096083c1-20e9-4b3f-880b-1bf7b342efbc",
    "name": "Dallas Love Field",
    "is_hub": false,
    "is_destination": true,
    "type": "large_airport",
    "country": "United States",
    "city": "Dallas",
    "latitude": 32.847099,
    "longitude": -96.851799,
    "gps_code": "KDAL",
    "iata_code": "DAL"
  },
  {
    "id": "9b6f18ae-5cea-4ebb-b613-c63d091668bf",
    "name": "James M Cox Dayton International Airport",
    "is_hub": false,
    "is_destination": false,
    "type": "large_airport",
    "country": "United States",
    "city": "Dayton",
    "latitude": 39.902400970458984,
    "longitude": -84.21939849853516,
    "gps_code": "KDAY",
    "iata_code": "DAY"
  },
  {
    "id": "b02a7565-b628-435e-9c11-5d388e481728",
    "name": "Dubuque Regional Airport",
    "is_hub": false,
    "is_destination": false,
    "type": "large_airport",
    "country": "United States",
    "city": "Dubuque",
    "latitude": 42.40200043,
    "longitude": -90.70950317,
    "gps_code": "KDBQ",
    "iata_code": "DBQ"
  },
  {
    "id": "5d12fe71-9b32-46c2-8c6a-bb3ee42ee853",
    "name": "Ronald Reagan Washington National Airport",
    "is_hub": false,
    "is_destination": false,
    "type": "large_airport",
    "country": "United States",
    "city": "Washington",
    "latitude": 38.8521,
    "longitude": -77.037697,
    "gps_code": "KDCA",
    "iata_code": "DCA"
  },
  {
    "id": "a7d9c9b6-eb7a-4ed6-811a-82fa21525897",
    "name": "Denver International Airport",
    "is_hub": true,
    "is_destination": false,
    "type": "large_airport",
    "country": "United States",
    "city": "Denver",
    "latitude": 39.861698150635,
    "longitude": -104.672996521,
    "gps_code": "KDEN",
    "iata_code": "DEN"
  },
  {
    "id": "30a2b6e8-fcc2-4e59-a61d-3aff713b23b0",
    "name": "Dallas Fort Worth International Airport",
    "is_hub": true,
    "is_destination": false,
    "type": "large_airport",
    "country": "United States",
    "city": "Dallas-Fort Worth",
    "latitude": 32.896801,
    "longitude": -97.038002,
    "gps_code": "KDFW",
    "iata_code": "DFW"
  },
  {
    "id": "0b895e6b-17e9-44b3-b433-b6de362a2eb5",
    "name": "DLF Airport",
    "is_hub": false,
    "is_destination": false,
    "type": "large_airport",
    "country": "United States",
    "city": "Del Rio",
    "latitude": 29.359501,
    "longitude": -100.778002,
    "gps_code": "KDLF",
    "iata_code": "DLF"
  },
  {
    "id": "068780af-0e90-48b6-9f0f-dfc8dc8e0296",
    "name": "Duluth International Airport",
    "is_hub": false,
    "is_destination": false,
    "type": "large_airport",
    "country": "United States",
    "city": "Duluth",
    "latitude": 46.8420982361,
    "longitude": -92.19360351559999,
    "gps_code": "KDLH",
    "iata_code": "DLH"
  },
  {
    "id": "bc0593aa-4d2f-476b-a1fe-f0e35612a808",
    "name": "Dover Air Force Base",
    "is_hub": false,
    "is_destination": false,
    "type": "large_airport",
    "country": "United States",
    "city": "Dover",
    "latitude": 39.12950134,
    "longitude": -75.46600342,
    "gps_code": "KDOV",
    "iata_code": "DOV"
  },
  {
    "id": "5af84a35-d6cf-43f8-8de0-f2e872399331",
    "name": "Des Moines International Airport",
    "is_hub": false,
    "is_destination": false,
    "type": "large_airport",
    "country": "United States",
    "city": "Des Moines",
    "latitude": 41.534000396728516,
    "longitude": -93.66310119628906,
    "gps_code": "KDSM",
    "iata_code": "DSM"
  },
  {
    "id": "89aae920-ac29-4f47-bd7d-a5f4eb9d0ad7",
    "name": "Detroit Metropolitan Wayne County Airport",
    "is_hub": false,
    "is_destination": false,
    "type": "large_airport",
    "country": "United States",
    "city": "Detroit",
    "latitude": 42.212398529052734,
    "longitude": -83.35340118408203,
    "gps_code": "KDTW",
    "iata_code": "DTW"
  },
  {
    "id": "f9208fd4-a656-46a3-b0e8-7f1f5cc06d95",
    "name": "Dyess Air Force Base",
    "is_hub": false,
    "is_destination": false,
    "type": "large_airport",
    "country": "United States",
    "city": "Abilene",
    "latitude": 32.4207992554,
    "longitude": -99.854598999,
    "gps_code": "KDYS",
    "iata_code": "DYS"
  },
  {
    "id": "5aa07b55-9215-43e5-aca2-a84cc443df2d",
    "name": "Edwards Air Force Base",
    "is_hub": false,
    "is_destination": false,
    "type": "large_airport",
    "country": "United States",
    "city": "Edwards",
    "latitude": 34.905399,
    "longitude": -117.884003,
    "gps_code": "KEDW",
    "iata_code": "EDW"
  },
  {
    "id": "a36980c1-255d-4b20-a19d-4484f7f6d1f1",
    "name": "Ellington Airport",
    "is_hub": false,
    "is_destination": true,
    "type": "medium_airport",
    "country": "United States",
    "city": "Houston",
    "latitude": 29.607299804700002,
    "longitude": -95.1587982178,
    "gps_code": "KEFD",
    "iata_code": "EFD"
  },
  {
    "id": "c4bada87-f5e4-4e75-9af8-9e060d76fe3c",
    "name": "Vance Air Force Base",
    "is_hub": false,
    "is_destination": false,
    "type": "large_airport",
    "country": "United States",
    "city": "Enid",
    "latitude": 36.339199066199996,
    "longitude": -97.9164962769,
    "gps_code": "KEND",
    "iata_code": "END"
  },
  {
    "id": "34afbd50-f1d1-4278-b4f5-d85e6585741f",
    "name": "Erie International Tom Ridge Field",
    "is_hub": false,
    "is_destination": false,
    "type": "large_airport",
    "country": "United States",
    "city": "Erie",
    "latitude": 42.0831270134,
    "longitude": -80.1738667488,
    "gps_code": "KERI",
    "iata_code": "ERI"
  },
  {
    "id": "1707f372-7610-4be8-809c-c2e51f884475",
    "name": "Esler Regional Airport",
    "is_hub": false,
    "is_destination": true,
    "type": "medium_airport",
    "country": "United States",
    "city": "Alexandria",
    "latitude": 31.3948993683,
    "longitude": -92.2957992554,
    "gps_code": "KESF",
    "iata_code": "ESF"
  },
  {
    "id": "e7c51da2-e9c2-403d-838c-f0ca9be3f3c6",
    "name": "Newark Liberty International Airport",
    "is_hub": true,
    "is_destination": false,
    "type": "large_airport",
    "country": "United States",
    "city": "Newark",
    "latitude": 40.692501068115234,
    "longitude": -74.168701171875,
    "gps_code": "KEWR",
    "iata_code": "EWR"
  },
  {
    "id": "ce659111-9b92-443c-8e13-f199e3e043e4",
    "name": "Wright-Patterson Air Force Base",
    "is_hub": false,
    "is_destination": false,
    "type": "large_airport",
    "country": "United States",
    "city": "Dayton",
    "latitude": 39.8260993958,
    "longitude": -84.0483016968,
    "gps_code": "KFFO",
    "iata_code": "FFO"
  },
  {
    "id": "7cc990ae-ac3d-4de3-9541-391ba9a4a936",
    "name": "Fort Lauderdale Hollywood International Airport",
    "is_hub": false,
    "is_destination": false,
    "type": "large_airport",
    "country": "United States",
    "city": "Fort Lauderdale",
    "latitude": 26.072599,
    "longitude": -80.152702,
    "gps_code": "KFLL",
    "iata_code": "FLL"
  },
  {
    "id": "f3aeb3a2-8a52-4102-90ef-18aba5e08656",
    "name": "Fort Smith Regional Airport",
    "is_hub": false,
    "is_destination": false,
    "type": "large_airport",
    "country": "United States",
    "city": "Fort Smith",
    "latitude": 35.33660125732422,
    "longitude": -94.36740112304688,
    "gps_code": "KFSM",
    "iata_code": "FSM"
  },
  {
    "id": "d66ec4d7-a980-4970-a32b-0ae7cbf433b5",
    "name": "Fort Worth Meacham International Airport",
    "is_hub": false,
    "is_destination": false,
    "type": "large_airport",
    "country": "United States",
    "city": "Fort Worth",
    "latitude": 32.819801,
    "longitude": -97.362396,
    "gps_code": "KFTW",
    "iata_code": "FTW"
  },
  {
    "id": "5e1c2b90-da4e-40e9-ad8c-a3a44d3d86e7",
    "name": "Fort Wayne International Airport",
    "is_hub": false,
    "is_destination": false,
    "type": "large_airport",
    "country": "United States",
    "city": "Fort Wayne",
    "latitude": 40.97850037,
    "longitude": -85.19509888,
    "gps_code": "KFWA",
    "iata_code": "FWA"
  },
  {
    "id": "4f1eee32-ae6c-42c8-acb1-a327f654780d",
    "name": "Spokane International Airport",
    "is_hub": false,
    "is_destination": false,
    "type": "large_airport",
    "country": "United States",
    "city": "Spokane",
    "latitude": 47.61989974975586,
    "longitude": -117.53399658203125,
    "gps_code": "KGEG",
    "iata_code": "GEG"
  },
  {
    "id": "906dfe23-d611-4552-ab11-a86bb60398b5",
    "name": "Gulfport Biloxi International Airport",
    "is_hub": false,
    "is_destination": false,
    "type": "large_airport",
    "country": "United States",
    "city": "Gulfport",
    "latitude": 30.40730094909668,
    "longitude": -89.07009887695312,
    "gps_code": "KGPT",
    "iata_code": "GPT"
  },
  {
    "id": "1296768e-9bc1-4a18-b6b6-94af25212ee0",
    "name": "Austin Straubel International Airport",
    "is_hub": false,
    "is_destination": false,
    "type": "large_airport",
    "country": "United States",
    "city": "Green Bay",
    "latitude": 44.48509979248047,
    "longitude": -88.12960052490234,
    "gps_code": "KGRB",
    "iata_code": "GRB"
  },
  {
    "id": "88260288-4001-41df-aadd-3ee59fcaf580",
    "name": "Seymour Johnson Air Force Base",
    "is_hub": false,
    "is_destination": false,
    "type": "large_airport",
    "country": "United States",
    "city": "Goldsboro",
    "latitude": 35.33940125,
    "longitude": -77.96060181,
    "gps_code": "KGSB",
    "iata_code": "GSB"
  },
  {
    "id": "d5943d68-09c1-4d16-b651-d2dfb9d7c18c",
    "name": "Piedmont Triad International Airport",
    "is_hub": false,
    "is_destination": false,
    "type": "large_airport",
    "country": "United States",
    "city": "Greensboro",
    "latitude": 36.097801208496094,
    "longitude": -79.93730163574219,
    "gps_code": "KGSO",
    "iata_code": "GSO"
  },
  {
    "id": "e4dc29a0-cd70-48e3-bd87-01fc06df9cc6",
    "name": "Greenville Spartanburg International Airport",
    "is_hub": false,
    "is_destination": false,
    "type": "large_airport",
    "country": "United States",
    "city": "Greenville",
    "latitude": 34.8956985474,
    "longitude": -82.2189025879,
    "gps_code": "KGSP",
    "iata_code": "GSP"
  },
  {
    "id": "90373a79-6307-47ce-833f-374e06b94a91",
    "name": "Grissom Air Reserve Base",
    "is_hub": false,
    "is_destination": false,
    "type": "large_airport",
    "country": "United States",
    "city": "Peru",
    "latitude": 40.648101806599996,
    "longitude": -86.1520996094,
    "gps_code": "KGUS",
    "iata_code": "GUS"
  },
  {
    "id": "84bdbc74-333d-4575-841c-89d8729e6d49",
    "name": "Range Regional Airport",
    "is_hub": false,
    "is_destination": false,
    "type": "large_airport",
    "country": "United States",
    "city": "Hibbing",
    "latitude": 47.38660049,
    "longitude": -92.83899689,
    "gps_code": "KHIB",
    "iata_code": "HIB"
  },
  {
    "id": "21bed236-72e0-4958-8393-929e0893dc00",
    "name": "Holloman Air Force Base",
    "is_hub": false,
    "is_destination": false,
    "type": "large_airport",
    "country": "United States",
    "city": "Alamogordo",
    "latitude": 32.8525009155,
    "longitude": -106.107002258,
    "gps_code": "KHMN",
    "iata_code": "HMN"
  },
  {
    "id": "3ca7a51c-0624-45f7-b991-5f33fce1055a",
    "name": "William P Hobby Airport",
    "is_hub": false,
    "is_destination": true,
    "type": "large_airport",
    "country": "United States",
    "city": "Houston",
    "latitude": 29.64539909,
    "longitude": -95.27890015,
    "gps_code": "KHOU",
    "iata_code": "HOU"
  },
  {
    "id": "2c96450c-5f3f-4aed-9e66-2acfcb5d5eb3",
    "name": "Huntsville International Carl T Jones Field",
    "is_hub": false,
    "is_destination": false,
    "type": "large_airport",
    "country": "United States",
    "city": "Huntsville",
    "latitude": 34.637199401855,
    "longitude": -86.775100708008,
    "gps_code": "KHSV",
    "iata_code": "HSV"
  },
  {
    "id": "cfdb6fc3-c216-48aa-ad75-0cb70e677994",
    "name": "Tri-State/Milton J. Ferguson Field",
    "is_hub": false,
    "is_destination": false,
    "type": "large_airport",
    "country": "United States",
    "city": "Huntington",
    "latitude": 38.36669922,
    "longitude": -82.55799866,
    "gps_code": "KHTS",
    "iata_code": "HTS"
  },
  {
    "id": "430be39e-d656-4bbf-8845-3459f0a81cd1",
    "name": "Washington Dulles International Airport",
    "is_hub": false,
    "is_destination": false,
    "type": "large_airport",
    "country": "United States",
    "city": "Washington",
    "latitude": 38.94449997,
    "longitude": -77.45580292,
    "gps_code": "KIAD",
    "iata_code": "IAD"
  },
  {
    "id": "f981921e-149a-495d-896e-72af759f3d7e",
    "name": "George Bush Intercontinental Houston Airport",
    "is_hub": true,
    "is_destination": true,
    "type": "large_airport",
    "country": "United States",
    "city": "Houston",
    "latitude": 29.984399795532227,
    "longitude": -95.34140014648438,
    "gps_code": "KIAH",
    "iata_code": "IAH"
  },
  {
    "id": "1aceaa78-7b1b-4edc-a68c-373d89a049dd",
    "name": "Wichita Eisenhower National Airport",
    "is_hub": false,
    "is_destination": false,
    "type": "large_airport",
    "country": "United States",
    "city": "Wichita",
    "latitude": 37.649899,
    "longitude": -97.433098,
    "gps_code": "KICT",
    "iata_code": "ICT"
  },
  {
    "id": "42666b83-b469-4522-b892-5ac2c93d0b99",
    "name": "Indianapolis International Airport",
    "is_hub": false,
    "is_destination": false,
    "type": "large_airport",
    "country": "United States",
    "city": "Indianapolis",
    "latitude": 39.7173,
    "longitude": -86.294403,
    "gps_code": "KIND",
    "iata_code": "IND"
  },
  {
    "id": "a42b2011-34ba-4070-9e2e-32bd603ad56a",
    "name": "Phoenix-Mesa-Gateway Airport",
    "is_hub": false,
    "is_destination": true,
    "type": "medium_airport",
    "country": "United States",
    "city": "Phoenix",
    "latitude": 33.30780029,
    "longitude": -111.6549988,
    "gps_code": "KIWA",
    "iata_code": "AZA"
  },
  {
    "id": "4c6c51eb-f9cb-485d-a37b-4ba32207ac50",
    "name": "Jackson-Medgar Wiley Evers International Airport",
    "is_hub": false,
    "is_destination": false,
    "type": "large_airport",
    "country": "United States",
    "city": "Jackson",
    "latitude": 32.3111991882,
    "longitude": -90.0758972168,
    "gps_code": "KJAN",
    "iata_code": "JAN"
  },
  {
    "id": "7f36eb44-0777-4e9c-83de-4c7d2a0aaac4",
    "name": "Jacksonville International Airport",
    "is_hub": false,
    "is_destination": false,
    "type": "large_airport",
    "country": "United States",
    "city": "Jacksonville",
    "latitude": 30.49410057067871,
    "longitude": -81.68789672851562,
    "gps_code": "KJAX",
    "iata_code": "JAX"
  },
  {
    "id": "ebc645cd-ea42-40dc-b940-69456b64d2dd",
    "name": "John F. Kennedy International Airport",
    "is_hub": true,
    "is_destination": true,
    "type": "large_airport",
    "country": "United States",
    "city": "New York",
    "latitude": 40.63980103,
    "longitude": -73.77890015,
    "gps_code": "KJFK",
    "iata_code": "JFK"
  },
  {
    "id": "432b195b-fdb2-4855-934a-db8a6e8a7793",
    "name": "Joplin Regional Airport",
    "is_hub": false,
    "is_destination": false,
    "type": "large_airport",
    "country": "United States",
    "city": "Joplin",
    "latitude": 37.151798248291016,
    "longitude": -94.49829864501953,
    "gps_code": "KJLN",
    "iata_code": "JLN"
  },
  {
    "id": "2a43c69d-7e42-48ef-9968-8c437863d4b0",
    "name": "McCarran International Airport",
    "is_hub": true,
    "is_destination": false,
    "type": "large_airport",
    "country": "United States",
    "city": "Las Vegas",
    "latitude": 36.08010101,
    "longitude": -115.1520004,
    "gps_code": "KLAS",
    "iata_code": "LAS"
  },
  {
    "id": "9600276f-608f-4325-a037-f185848f2e28",
    "name": "Los Angeles International Airport",
    "is_hub": true,
    "is_destination": true,
    "type": "large_airport",
    "country": "United States",
    "city": "Los Angeles",
    "latitude": 33.94250107,
    "longitude": -118.4079971,
    "gps_code": "KLAX",
    "iata_code": "LAX"
  },
  {
    "id": "7f1f2746-9b65-4991-9cdc-a17f62389be1",
    "name": "Lubbock Preston Smith International Airport",
    "is_hub": false,
    "is_destination": false,
    "type": "large_airport",
    "country": "United States",
    "city": "Lubbock",
    "latitude": 33.663601,
    "longitude": -101.822998,
    "gps_code": "KLBB",
    "iata_code": "LBB"
  },
  {
    "id": "76c0bf5b-5460-4257-93f6-ba693a129d77",
    "name": "Rickenbacker International Airport",
    "is_hub": false,
    "is_destination": false,
    "type": "large_airport",
    "country": "United States",
    "city": "Columbus",
    "latitude": 39.813801,
    "longitude": -82.927803,
    "gps_code": "KLCK",
    "iata_code": "LCK"
  },
  {
    "id": "50a27f80-1650-40d7-8d87-507201932fa3",
    "name": "Blue Grass Airport",
    "is_hub": false,
    "is_destination": false,
    "type": "large_airport",
    "country": "United States",
    "city": "Lexington",
    "latitude": 38.0364990234375,
    "longitude": -84.60590362548828,
    "gps_code": "KLEX",
    "iata_code": "LEX"
  },
  {
    "id": "b4e9bf50-46cb-4977-b75e-cd5b87e40619",
    "name": "Langley Air Force Base",
    "is_hub": false,
    "is_destination": false,
    "type": "large_airport",
    "country": "United States",
    "city": "Hampton",
    "latitude": 37.082901001,
    "longitude": -76.360496521,
    "gps_code": "KLFI",
    "iata_code": "LFI"
  },
  {
    "id": "f102f8af-d535-43ab-9bc8-ae1ea3a59a6d",
    "name": "Lafayette Regional Airport",
    "is_hub": false,
    "is_destination": false,
    "type": "large_airport",
    "country": "United States",
    "city": "Lafayette",
    "latitude": 30.20529938,
    "longitude": -91.98760223,
    "gps_code": "KLFT",
    "iata_code": "LFT"
  },
  {
    "id": "4fd95be0-dd54-406c-8f9d-5d3e5026ad9c",
    "name": "La Guardia Airport",
    "is_hub": false,
    "is_destination": true,
    "type": "large_airport",
    "country": "United States",
    "city": "New York",
    "latitude": 40.77719879,
    "longitude": -73.87259674,
    "gps_code": "KLGA",
    "iata_code": "LGA"
  },
  {
    "id": "f1e23607-defc-4d90-a06e-3490f0ea08f2",
    "name": "Bill & Hillary Clinton National Airport/Adams Field",
    "is_hub": false,
    "is_destination": false,
    "type": "large_airport",
    "country": "United States",
    "city": "Little Rock",
    "latitude": 34.729400634799994,
    "longitude": -92.2242965698,
    "gps_code": "KLIT",
    "iata_code": "LIT"
  },
  {
    "id": "0a88bd6f-2fed-4a3a-924a-fa5a65d4cc41",
    "name": "London-Corbin Airport/Magee Field",
    "is_hub": false,
    "is_destination": true,
    "type": "medium_airport",
    "country": "United States",
    "city": "London",
    "latitude": 37.0821990967,
    "longitude": -84.08489990230001,
    "gps_code": "KLOZ",
    "iata_code": "LOZ"
  },
  {
    "id": "8cd56750-4c0a-4d10-a68c-0cc2d1e5efcb",
    "name": "Altus Air Force Base",
    "is_hub": false,
    "is_destination": false,
    "type": "large_airport",
    "country": "United States",
    "city": "Altus",
    "latitude": 34.667098999,
    "longitude": -99.2667007446,
    "gps_code": "KLTS",
    "iata_code": "LTS"
  },
  {
    "id": "c948c889-5e02-425a-987f-3a41f78e80b4",
    "name": "Luke Air Force Base",
    "is_hub": false,
    "is_destination": false,
    "type": "large_airport",
    "country": "United States",
    "city": "Glendale",
    "latitude": 33.534999847399995,
    "longitude": -112.383003235,
    "gps_code": "KLUF",
    "iata_code": "LUF"
  },
  {
    "id": "33e93c59-d048-4977-8d69-f120c9d75c98",
    "name": "MBS International Airport",
    "is_hub": false,
    "is_destination": false,
    "type": "large_airport",
    "country": "United States",
    "city": "Saginaw",
    "latitude": 43.532901763916016,
    "longitude": -84.07959747314453,
    "gps_code": "KMBS",
    "iata_code": "MBS"
  },
  {
    "id": "9cb28df1-6aac-4533-bbcc-00d9b5cec125",
    "name": "Mac Dill Air Force Base",
    "is_hub": false,
    "is_destination": false,
    "type": "large_airport",
    "country": "United States",
    "city": "Tampa",
    "latitude": 27.84930038,
    "longitude": -82.52120209,
    "gps_code": "KMCF",
    "iata_code": "MCF"
  },
  {
    "id": "a186af78-724c-4dd3-a696-d1fef4527a87",
    "name": "Kansas City International Airport",
    "is_hub": false,
    "is_destination": false,
    "type": "large_airport",
    "country": "United States",
    "city": "Kansas City",
    "latitude": 39.2976,
    "longitude": -94.713898,
    "gps_code": "KMCI",
    "iata_code": "MCI"
  },
  {
    "id": "97019c3f-cd35-4c18-b9b6-9fb2a23a701f",
    "name": "Orlando International Airport",
    "is_hub": true,
    "is_destination": false,
    "type": "large_airport",
    "country": "United States",
    "city": "Orlando",
    "latitude": 28.429399490356445,
    "longitude": -81.30899810791016,
    "gps_code": "KMCO",
    "iata_code": "MCO"
  },
  {
    "id": "50e5de7d-572a-4187-b0f7-63bafd9c6ac1",
    "name": "Chicago Midway International Airport",
    "is_hub": false,
    "is_destination": true,
    "type": "large_airport",
    "country": "United States",
    "city": "Chicago",
    "latitude": 41.785999,
    "longitude": -87.752403,
    "gps_code": "KMDW",
    "iata_code": "MDW"
  },
  {
    "id": "789a3ebb-4512-4919-b780-1873ca944ac3",
    "name": "Memphis International Airport",
    "is_hub": false,
    "is_destination": false,
    "type": "large_airport",
    "country": "United States",
    "city": "Memphis",
    "latitude": 35.04240036010742,
    "longitude": -89.97669982910156,
    "gps_code": "KMEM",
    "iata_code": "MEM"
  },
  {
    "id": "61bebaca-5fda-4047-83b1-26e3931f902e",
    "name": "Dobbins Air Reserve Base",
    "is_hub": false,
    "is_destination": false,
    "type": "large_airport",
    "country": "United States",
    "city": "Marietta",
    "latitude": 33.91540146,
    "longitude": -84.51629639,
    "gps_code": "KMGE",
    "iata_code": "MGE"
  },
  {
    "id": "b6c3fd89-1af7-4b79-b0b4-a601439719d9",
    "name": "Montgomery Regional (Dannelly Field) Airport",
    "is_hub": false,
    "is_destination": false,
    "type": "large_airport",
    "country": "United States",
    "city": "Montgomery",
    "latitude": 32.30059814,
    "longitude": -86.39399719,
    "gps_code": "KMGM",
    "iata_code": "MGM"
  },
  {
    "id": "40138c8e-3140-4cdc-add5-f273fcc98586",
    "name": "Manchester-Boston Regional Airport",
    "is_hub": false,
    "is_destination": false,
    "type": "large_airport",
    "country": "United States",
    "city": "Manchester",
    "latitude": 42.932598,
    "longitude": -71.435699,
    "gps_code": "KMHT",
    "iata_code": "MHT"
  },
  {
    "id": "9446c2f4-3e4f-40d7-a1e6-1fa72833fd84",
    "name": "Miami International Airport",
    "is_hub": true,
    "is_destination": false,
    "type": "large_airport",
    "country": "United States",
    "city": "Miami",
    "latitude": 25.79319953918457,
    "longitude": -80.29060363769531,
    "gps_code": "KMIA",
    "iata_code": "MIA"
  },
  {
    "id": "ce04de1c-e4d9-4018-9dbf-5c591a54839c",
    "name": "General Mitchell International Airport",
    "is_hub": false,
    "is_destination": false,
    "type": "large_airport",
    "country": "United States",
    "city": "Milwaukee",
    "latitude": 42.947200775146484,
    "longitude": -87.89659881591797,
    "gps_code": "KMKE",
    "iata_code": "MKE"
  },
  {
    "id": "26b713e3-9e28-4418-b100-0d48af0685e8",
    "name": "Melbourne International Airport",
    "is_hub": false,
    "is_destination": true,
    "type": "medium_airport",
    "country": "United States",
    "city": "Melbourne",
    "latitude": 28.102800369262695,
    "longitude": -80.64530181884766,
    "gps_code": "KMLB",
    "iata_code": "MLB"
  },
  {
    "id": "7e6db5f0-5b19-49e1-bfdb-ef793e3eab3c",
    "name": "Quad City International Airport",
    "is_hub": false,
    "is_destination": false,
    "type": "large_airport",
    "country": "United States",
    "city": "Moline",
    "latitude": 41.44850158691406,
    "longitude": -90.50749969482422,
    "gps_code": "KMLI",
    "iata_code": "MLI"
  },
  {
    "id": "65c2c01b-91b6-48b6-abd6-cf45e8066efd",
    "name": "Monroe Regional Airport",
    "is_hub": false,
    "is_destination": false,
    "type": "large_airport",
    "country": "United States",
    "city": "Monroe",
    "latitude": 32.51089859008789,
    "longitude": -92.0376968383789,
    "gps_code": "KMLU",
    "iata_code": "MLU"
  },
  {
    "id": "fcf8bb09-66c4-44f5-928b-b9bbf6b8442a",
    "name": "Mobile Regional Airport",
    "is_hub": false,
    "is_destination": false,
    "type": "large_airport",
    "country": "United States",
    "city": "Mobile",
    "latitude": 30.691200256348,
    "longitude": -88.242797851562,
    "gps_code": "KMOB",
    "iata_code": "MOB"
  },
  {
    "id": "0cce0a87-bcf8-405f-95e2-8aad0ddf158b",
    "name": "Dane County Regional Truax Field",
    "is_hub": false,
    "is_destination": false,
    "type": "large_airport",
    "country": "United States",
    "city": "Madison",
    "latitude": 43.13990020751953,
    "longitude": -89.3375015258789,
    "gps_code": "KMSN",
    "iata_code": "MSN"
  },
  {
    "id": "6b77a16b-c506-412a-9bcc-a5b18ee5e0ec",
    "name": "Minneapolis-St Paul International Airport",
    "is_hub": true,
    "is_destination": false,
    "type": "large_airport",
    "country": "United States",
    "city": "Minneapolis",
    "latitude": 44.882,
    "longitude": -93.221802,
    "gps_code": "KMSP",
    "iata_code": "MSP"
  },
  {
    "id": "f441663c-b9c5-47e4-8b9c-1c378888db89",
    "name": "Louis Armstrong New Orleans International Airport",
    "is_hub": false,
    "is_destination": false,
    "type": "large_airport",
    "country": "United States",
    "city": "New Orleans",
    "latitude": 29.99340057373047,
    "longitude": -90.25800323486328,
    "gps_code": "KMSY",
    "iata_code": "MSY"
  },
  {
    "id": "3bae5623-d797-45c6-8a0a-9b5705771405",
    "name": "Mountain Home Air Force Base",
    "is_hub": false,
    "is_destination": false,
    "type": "large_airport",
    "country": "United States",
    "city": "Mountain Home",
    "latitude": 43.043598,
    "longitude": -115.872002,
    "gps_code": "KMUO",
    "iata_code": "MUO"
  },
  {
    "id": "7d3a3409-1574-4706-ab90-98d2ee47f893",
    "name": "Miramar Marine Corps Air Station - Mitscher Field",
    "is_hub": false,
    "is_destination": true,
    "type": "medium_airport",
    "country": "United States",
    "city": "San Diego",
    "latitude": 32.86840057,
    "longitude": -117.1429977,
    "gps_code": "KNKX",
    "iata_code": "NKX"
  },
  {
    "id": "10ee9c09-1607-4080-939a-ee3217bd75fa",
    "name": "North Island Naval Air Station-Halsey Field",
    "is_hub": false,
    "is_destination": true,
    "type": "medium_airport",
    "country": "United States",
    "city": "San Diego",
    "latitude": 32.69919968,
    "longitude": -117.2149963,
    "gps_code": "KNZY",
    "iata_code": "NZY"
  },
  {
    "id": "6680a380-a2d7-48e2-ad42-67ec11e3f055",
    "name": "Metropolitan Oakland International Airport",
    "is_hub": false,
    "is_destination": false,
    "type": "large_airport",
    "country": "United States",
    "city": "Oakland",
    "latitude": 37.721298,
    "longitude": -122.221001,
    "gps_code": "KOAK",
    "iata_code": "OAK"
  },
  {
    "id": "91186aa1-d654-4f65-972a-080bf19dad9c",
    "name": "Will Rogers World Airport",
    "is_hub": false,
    "is_destination": false,
    "type": "large_airport",
    "country": "United States",
    "city": "Oklahoma City",
    "latitude": 35.39310073852539,
    "longitude": -97.60070037841797,
    "gps_code": "KOKC",
    "iata_code": "OKC"
  },
  {
    "id": "0bbfa01f-b590-46be-97df-0be850c48d72",
    "name": "Eppley Airfield",
    "is_hub": false,
    "is_destination": false,
    "type": "large_airport",
    "country": "United States",
    "city": "Omaha",
    "latitude": 41.3032,
    "longitude": -95.894096,
    "gps_code": "KOMA",
    "iata_code": "OMA"
  },
  {
    "id": "16a123c1-077a-4dda-8cd4-97a7b295651b",
    "name": "Ontario International Airport",
    "is_hub": false,
    "is_destination": false,
    "type": "large_airport",
    "country": "United States",
    "city": "Ontario",
    "latitude": 34.055999755859375,
    "longitude": -117.60099792480469,
    "gps_code": "KONT",
    "iata_code": "ONT"
  },
  {
    "id": "8d566af9-abf3-4c22-aef9-5ec165ab8c43",
    "name": "Chicago O'Hare International Airport",
    "is_hub": true,
    "is_destination": true,
    "type": "large_airport",
    "country": "United States",
    "city": "Chicago",
    "latitude": 41.9786,
    "longitude": -87.9048,
    "gps_code": "KORD",
    "iata_code": "ORD"
  },
  {
    "id": "564cde6b-fb74-4374-a349-eb98c78a3e73",
    "name": "Norfolk International Airport",
    "is_hub": false,
    "is_destination": false,
    "type": "large_airport",
    "country": "United States",
    "city": "Norfolk",
    "latitude": 36.89459991455078,
    "longitude": -76.20120239257812,
    "gps_code": "KORF",
    "iata_code": "ORF"
  },
  {
    "id": "f1d49eda-2606-4801-9763-0687ae2746d3",
    "name": "Tyndall Air Force Base",
    "is_hub": false,
    "is_destination": false,
    "type": "large_airport",
    "country": "United States",
    "city": "Panama City",
    "latitude": 30.0695991516,
    "longitude": -85.57540130619999,
    "gps_code": "KPAM",
    "iata_code": "PAM"
  },
  {
    "id": "3ce223fe-de28-49e9-82ab-30edfb067a36",
    "name": "Palm Beach International Airport",
    "is_hub": false,
    "is_destination": false,
    "type": "large_airport",
    "country": "United States",
    "city": "West Palm Beach",
    "latitude": 26.68320083618164,
    "longitude": -80.09559631347656,
    "gps_code": "KPBI",
    "iata_code": "PBI"
  },
  {
    "id": "4d804bc1-2021-45c7-97ef-e77504ed8ab6",
    "name": "Portland International Airport",
    "is_hub": false,
    "is_destination": false,
    "type": "large_airport",
    "country": "United States",
    "city": "Portland",
    "latitude": 45.58869934,
    "longitude": -122.5979996,
    "gps_code": "KPDX",
    "iata_code": "PDX"
  },