[
  {
    "name": "Aleknagik / New Airport",
    "is_hub": false,
    "is_destination": false,
    "type": "medium_airport",
    "country": "United States",
    "city": "Aleknagik",
    "latitude": 59.2826004028,
    "longitude": -158.617996216,
    "gps_code": "5A8",
    "iata_code": "WKK",
    "connection": []
  },
  {
    "name": "Honiara International Airport",
    "is_hub": false,
    "is_destination": false,
    "type": "medium_airport",
    "country": "Solomon Islands",
    "city": "Honiara",
    "latitude": -9.4280004501343,
    "longitude": 160.05499267578,
    "gps_code": "AGGH",
    "iata_code": "HIR",
    "connection": []
  },
  {
    "name": "Munda Airport",
    "is_hub": false,
    "is_destination": false,
    "type": "medium_airport",
    "country": "Solomon Islands",
    "city": "",
    "latitude": -8.327969551086426,
    "longitude": 157.26300048828125,
    "gps_code": "AGGM",
    "iata_code": "MUA",
    "connection": []
  },
  {
    "name": "Hongyuan Airport",
    "is_hub": false,
    "is_destination": false,
    "type": "medium_airport",
    "country": "China",
    "city": "Aba",
    "latitude": 32.53154,
    "longitude": 102.35224,
    "gps_code": "ZUHY",
    "iata_code": "AHJ",
    "connection": []
  },
  {
    "name": "Nauru International Airport",
    "is_hub": false,
    "is_destination": false,
    "type": "medium_airport",
    "country": "Nauru",
    "city": "Yaren District",
    "latitude": -0.547458,
    "longitude": 166.919006,
    "gps_code": "ANYN",
    "iata_code": "INU",
    "connection": []
  },
  {
    "name": "Alxa Left Banner Bayanhot Airport",
    "is_hub": false,
    "is_destination": false,
    "type": "medium_airport",
    "country": "China",
    "city": "Bayanhot",
    "latitude": 38.74831,
    "longitude": 105.58858,
    "gps_code": "ZBAL",
    "iata_code": "AXF",
    "connection": []
  },
  {
    "name": "Buka Airport",
    "is_hub": false,
    "is_destination": false,
    "type": "medium_airport",
    "country": "Papua New Guinea",
    "city": "Buka Island",
    "latitude": -5.4223198890686035,
    "longitude": 154.67300415039062,
    "gps_code": "AYBK",
    "iata_code": "BUA",
    "connection": []
  },
  {
    "name": "Chimbu Airport",
    "is_hub": false,
    "is_destination": false,
    "type": "medium_airport",
    "country": "Papua New Guinea",
    "city": "Kundiawa",
    "latitude": -6.024290084838867,
    "longitude": 144.9709930419922,
    "gps_code": "AYCH",
    "iata_code": "CMU",
    "connection": []
  },
  {
    "name": "Daru Airport",
    "is_hub": false,
    "is_destination": false,
    "type": "medium_airport",
    "country": "Papua New Guinea",
    "city": "Daru",
    "latitude": -9.08675956726,
    "longitude": 143.207992554,
    "gps_code": "AYDU",
    "iata_code": "DAU",
    "connection": []
  },
  {
    "name": "Goroka Airport",
    "is_hub": false,
    "is_destination": false,
    "type": "medium_airport",
    "country": "Papua New Guinea",
    "city": "Goronka",
    "latitude": -6.081689834590001,
    "longitude": 145.391998291,
    "gps_code": "AYGA",
    "iata_code": "GKA",
    "connection": []
  },
  {
    "name": "Gurney Airport",
    "is_hub": false,
    "is_destination": false,
    "type": "medium_airport",
    "country": "Papua New Guinea",
    "city": "Gurney",
    "latitude": -10.3114995956,
    "longitude": 150.333999634,
    "gps_code": "AYGN",
    "iata_code": "GUR",
    "connection": []
  },
  {
    "name": "Girua Airport",
    "is_hub": false,
    "is_destination": false,
    "type": "medium_airport",
    "country": "Papua New Guinea",
    "city": "Popondetta",
    "latitude": -8.80453968048,
    "longitude": 148.309005737,
    "gps_code": "AYGR",
    "iata_code": "PNP",
    "connection": []
  },
  {
    "name": "Kimbe Airport",
    "is_hub": false,
    "is_destination": false,
    "type": "medium_airport",
    "country": "Papua New Guinea",
    "city": "Hoskins",
    "latitude": -5.462170124053955,
    "longitude": 150.40499877929688,
    "gps_code": "AYHK",
    "iata_code": "HKN",
    "connection": []
  },
  {
    "name": "Kerema Airport",
    "is_hub": false,
    "is_destination": false,
    "type": "medium_airport",
    "country": "Papua New Guinea",
    "city": "Kerema",
    "latitude": -7.96361017227,
    "longitude": 145.770996094,
    "gps_code": "AYKM",
    "iata_code": "KMA",
    "connection": []
  },
  {
    "name": "Kavieng Airport",
    "is_hub": false,
    "is_destination": false,
    "type": "medium_airport",
    "country": "Papua New Guinea",
    "city": "Kavieng",
    "latitude": -2.57940006256,
    "longitude": 150.807998657,
    "gps_code": "AYKV",
    "iata_code": "KVG",
    "connection": []
  },
  {
    "name": "Madang Airport",
    "is_hub": false,
    "is_destination": false,
    "type": "medium_airport",
    "country": "Papua New Guinea",
    "city": "Madang",
    "latitude": -5.20707988739,
    "longitude": 145.789001465,
    "gps_code": "AYMD",
    "iata_code": "MAG",
    "connection": []
  },
  {
    "name": "Mount Hagen Kagamuga Airport",
    "is_hub": false,
    "is_destination": false,
    "type": "medium_airport",
    "country": "Papua New Guinea",
    "city": "Mount Hagen",
    "latitude": -5.826789855957031,
    "longitude": 144.29600524902344,
    "gps_code": "AYMH",
    "iata_code": "HGU",
    "connection": []
  },
  {
    "name": "Mendi Airport",
    "is_hub": false,
    "is_destination": false,
    "type": "medium_airport",
    "country": "Papua New Guinea",
    "city": "Mendi",
    "latitude": -6.14774,
    "longitude": 143.656998,
    "gps_code": "AYMN",
    "iata_code": "MDU",
    "connection": []
  },
  {
    "name": "Momote Airport",
    "is_hub": false,
    "is_destination": false,
    "type": "medium_airport",
    "country": "Papua New Guinea",
    "city": "Manus Island",
    "latitude": -2.06189,
    "longitude": 147.423996,
    "gps_code": "AYMO",
    "iata_code": "MAS",
    "connection": []
  },
  {
    "name": "Nadzab Airport",
    "is_hub": false,
    "is_destination": false,
    "type": "medium_airport",
    "country": "Papua New Guinea",
    "city": "Lae",
    "latitude": -6.569803,
    "longitude": 146.725977,
    "gps_code": "AYNZ",
    "iata_code": "LAE",
    "connection": []
  },
  {
    "name": "Port Moresby Jacksons International Airport",
    "is_hub": false,
    "is_destination": false,
    "type": "large_airport",
    "country": "Papua New Guinea",
    "city": "Port Moresby",
    "latitude": -9.443380355834961,
    "longitude": 147.22000122070312,
    "gps_code": "AYPY",
    "iata_code": "POM",
    "connection": []
  },
  {
    "name": "Tokua Airport",
    "is_hub": false,
    "is_destination": false,
    "type": "medium_airport",
    "country": "Papua New Guinea",
    "city": "Tokua",
    "latitude": -4.34045982361,
    "longitude": 152.380004883,
    "gps_code": "AYTK",
    "iata_code": "RAB",
    "connection": []
  },
  {
    "name": "Vanimo Airport",
    "is_hub": false,
    "is_destination": false,
    "type": "medium_airport",
    "country": "Papua New Guinea",
    "city": "Vanimo",
    "latitude": -2.6926,
    "longitude": 141.3028,
    "gps_code": "AYVN",
    "iata_code": "VAI",
    "connection": []
  },
  {
    "name": "Wapenamanda Airport",
    "is_hub": false,
    "is_destination": false,
    "type": "medium_airport",
    "country": "Papua New Guinea",
    "city": "",
    "latitude": -5.6433000564575195,
    "longitude": 143.89500427246094,
    "gps_code": "AYWD",
    "iata_code": "WBM",
    "connection": []
  },
  {
    "name": "Wewak International Airport",
    "is_hub": false,
    "is_destination": false,
    "type": "medium_airport",
    "country": "Papua New Guinea",
    "city": "Wewak",
    "latitude": -3.58383011818,
    "longitude": 143.669006348,
    "gps_code": "AYWK",
    "iata_code": "WWK",
    "connection": []
  },
  {
    "name": "Zabrat Airport",
    "is_hub": false,
    "is_destination": true,
    "type": "medium_airport",
    "country": "Azerbaijan",
    "city": "Baku",
    "latitude": 40.4955422161,
    "longitude": 49.9768066406,
    "gps_code": "UBTT",
    "iata_code": "ZXT",
    "connection": []
  },
  {
    "name": "Bezmer Air Base",
    "is_hub": false,
    "is_destination": false,
    "type": "medium_airport",
    "country": "Bulgaria",
    "city": "Yambol",
    "latitude": 42.4548988342,
    "longitude": 26.3521995544,
    "gps_code": "LBIA",
    "iata_code": "JAM",
    "connection": []
  },
  {
    "name": "Aasiaat Airport",
    "is_hub": false,
    "is_destination": false,
    "type": "medium_airport",
    "country": "Greenland",
    "city": "Aasiaat",
    "latitude": 68.7218017578,
    "longitude": -52.7846984863,
    "gps_code": "BGAA",
    "iata_code": "JEG",
    "connection": []
  },
  {
    "name": "Narsarsuaq Airport",
    "is_hub": false,
    "is_destination": false,
    "type": "medium_airport",
    "country": "Greenland",
    "city": "Narsarsuaq",
    "latitude": 61.1604995728,
    "longitude": -45.4259986877,
    "gps_code": "BGBW",
    "iata_code": "UAK",
    "connection": []
  },
  {
    "name": "Godthaab / Nuuk Airport",
    "is_hub": false,
    "is_destination": false,
    "type": "medium_airport",
    "country": "Greenland",
    "city": "Nuuk",
    "latitude": 64.19090271,
    "longitude": -51.6781005859,
    "gps_code": "BGGH",
    "iata_code": "GOH",
    "connection": []
  },
  {
    "name": "Kangerlussuaq Airport",
    "is_hub": false,
    "is_destination": false,
    "type": "medium_airport",
    "country": "Greenland",
    "city": "Kangerlussuaq",
    "latitude": 67.0122218992,
    "longitude": -50.7116031647,
    "gps_code": "BGSF",
    "iata_code": "SFJ",
    "connection": []
  },
  {
    "name": "Thule Air Base",
    "is_hub": false,
    "is_destination": false,
    "type": "medium_airport",
    "country": "Greenland",
    "city": "Thule",
    "latitude": 76.5311965942,
    "longitude": -68.7032012939,
    "gps_code": "BGTL",
    "iata_code": "THU",
    "connection": []
  },
  {
    "name": "Akureyri Airport",
    "is_hub": false,
    "is_destination": false,
    "type": "medium_airport",
    "country": "Iceland",
    "city": "Akureyri",
    "latitude": 65.66000366210938,
    "longitude": -18.07270050048828,
    "gps_code": "BIAR",
    "iata_code": "AEY",
    "connection": []
  },
  {
    "name": "Egilssta\u00f0ir Airport",
    "is_hub": false,
    "is_destination": false,
    "type": "medium_airport",
    "country": "Iceland",
    "city": "Egilssta\u00f0ir",
    "latitude": 65.2833023071289,
    "longitude": -14.401399612426758,
    "gps_code": "BIEG",
    "iata_code": "EGS",
    "connection": []
  },
  {
    "name": "Hornafj\u00f6r\u00f0ur Airport",
    "is_hub": false,
    "is_destination": false,
    "type": "medium_airport",
    "country": "Iceland",
    "city": "H\u00f6fn",
    "latitude": 64.295601,
    "longitude": -15.2272,
    "gps_code": "BIHN",
    "iata_code": "HFN",
    "connection": []
  },
  {
    "name": "H\u00fasav\u00edk Airport",
    "is_hub": false,
    "is_destination": false,
    "type": "medium_airport",
    "country": "Iceland",
    "city": "H\u00fasav\u00edk",
    "latitude": 65.952301,
    "longitude": -17.426001,
    "gps_code": "BIHU",
    "iata_code": "HZK",
    "connection": []
  },
  {
    "name": "\u00cdsafj\u00f6r\u00f0ur Airport",
    "is_hub": false,
    "is_destination": false,
    "type": "medium_airport",
    "country": "Iceland",
    "city": "\u00cdsafj\u00f6r\u00f0ur",
    "latitude": 66.05809783935547,
    "longitude": -23.135299682617188,
    "gps_code": "BIIS",
    "iata_code": "IFJ",
    "connection": []
  },
  {
    "name": "Keflavik International Airport",
    "is_hub": false,
    "is_destination": false,
    "type": "large_airport",
    "country": "Iceland",
    "city": "Reykjav\u00edk",
    "latitude": 63.985000610352,
    "longitude": -22.605600357056,
    "gps_code": "BIKF",
    "iata_code": "KEF",
    "connection": []
  },
  {
    "name": "Reykjavik Airport",
    "is_hub": false,
    "is_destination": false,
    "type": "medium_airport",
    "country": "Iceland",
    "city": "Reykjavik",
    "latitude": 64.1299972534,
    "longitude": -21.9405994415,
    "gps_code": "BIRK",
    "iata_code": "RKV",
    "connection": []
  },
  {
    "name": "Siglufj\u00f6r\u00f0ur Airport",
    "is_hub": false,
    "is_destination": false,
    "type": "medium_airport",
    "country": "Iceland",
    "city": "Siglufj\u00f6r\u00f0ur",
    "latitude": 66.133301,
    "longitude": -18.9167,
    "gps_code": "BISI",
    "iata_code": "SIJ",
    "connection": []
  },
  {
    "name": "Vestmannaeyjar Airport",
    "is_hub": false,
    "is_destination": false,
    "type": "medium_airport",
    "country": "Iceland",
    "city": "Vestmannaeyjar",
    "latitude": 63.42430114746094,
    "longitude": -20.278900146484375,
    "gps_code": "BIVM",
    "iata_code": "VEY",
    "connection": []
  },
  {
    "name": "Pri\u0161tina International Airport",
    "is_hub": false,
    "is_destination": false,
    "type": "large_airport",
    "country": "Kosovo",
    "city": "Prishtina",
    "latitude": 42.5728,
    "longitude": 21.035801,
    "gps_code": "BKPR",
    "iata_code": "PRN",
    "connection": []
  },
  {
    "name": "San Pedro Airport",
    "is_hub": false,
    "is_destination": false,
    "type": "medium_airport",
    "country": "Belize",
    "city": "San Pedro",
    "latitude": 17.9139,
    "longitude": -87.9711,
    "gps_code": "MZSP",
    "iata_code": "SPR",
    "connection": []
  },
  {
    "name": "Yinchuan Hedong International Airport",
    "is_hub": false,
    "is_destination": false,
    "type": "medium_airport",
    "country": "China",
    "city": "Yinchuan",
    "latitude": 38.322758,
    "longitude": 106.393214,
    "gps_code": "ZLIC",
    "iata_code": "INC",
    "connection": []
  },
  {
    "name": "Yuanmou Air Base",
    "is_hub": false,
    "is_destination": false,
    "type": "medium_airport",
    "country": "China",
    "city": "Yuanmou",
    "latitude": 25.737499237061,
    "longitude": 101.88200378418,
    "gps_code": "ZPYM",
    "iata_code": "YUA",
    "connection": []
  },
  {
    "name": "Zhangjiakou Ningyuan Airport",
    "is_hub": false,
    "is_destination": false,
    "type": "medium_airport",
    "country": "China",
    "city": "Zhangjiakou",
    "latitude": 40.7386016846,
    "longitude": 114.930000305,
    "gps_code": "ZBZJ",
    "iata_code": "ZQZ",
    "connection": []
  },
  {
    "name": "Baoshan Yunduan Airport",
    "is_hub": false,
    "is_destination": false,
    "type": "medium_airport",
    "country": "China",
    "city": "",
    "latitude": 25.053301,
    "longitude": 99.168297,
    "gps_code": "ZPBS",
    "iata_code": "BSD",
    "connection": []
  },
  {
    "name": "Lintsang Airfield",
    "is_hub": false,
    "is_destination": false,
    "type": "medium_airport",
    "country": "China",
    "city": "Lincang",
    "latitude": 23.738100051900002,
    "longitude": 100.025001526,
    "gps_code": "ZPLC",
    "iata_code": "LNJ",
    "connection": []
  },
  {
    "name": "Shigatse Air Base",
    "is_hub": false,
    "is_destination": false,
    "type": "medium_airport",
    "country": "China",
    "city": "Xigaz\u00ea",
    "latitude": 29.3519,
    "longitude": 89.311401,
    "gps_code": "ZURK",
    "iata_code": "RKZ",
    "connection": []
  },
  {
    "name": "Bao'anying Airport",
    "is_hub": false,
    "is_destination": false,
    "type": "medium_airport",
    "country": "China",
    "city": "Panzhihua",
    "latitude": 26.54,
    "longitude": 101.79852,
    "gps_code": "ZUZH",
    "iata_code": "PZI",
    "connection": []
  },
  {
    "name": "Foshan Shadi Airport",
    "is_hub": false,
    "is_destination": false,
    "type": "medium_airport",
    "country": "China",
    "city": "Foshan",
    "latitude": 23.083299636799996,
    "longitude": 113.069999695,
    "gps_code": "ZGFS",
    "iata_code": "FUO",
    "connection": []
  },
  {
    "name": "Huizhou Airport",
    "is_hub": false,
    "is_destination": false,
    "type": "medium_airport",
    "country": "China",
    "city": "Huizhou",
    "latitude": 23.0499992371,
    "longitude": 114.599998474,
    "gps_code": "ZGHZ",
    "iata_code": "HUZ",
    "connection": []
  },
  {
    "name": "Jinggangshan Airport",
    "is_hub": false,
    "is_destination": false,
    "type": "medium_airport",
    "country": "China",
    "city": "Ji'an",
    "latitude": 26.856899261499997,
    "longitude": 114.736999512,
    "gps_code": "ZSJA",
    "iata_code": "JGS",
    "connection": []
  },
  {
    "name": "Baise Youjiang Airport",
    "is_hub": false,
    "is_destination": false,
    "type": "medium_airport",
    "country": "China",
    "city": "Baise",
    "latitude": 23.7206001282,
    "longitude": 106.959999084,
    "gps_code": "ZGBS",
    "iata_code": "AEB",
    "connection": []
  },
  {
    "name": "Dongying Shengli Airport",
    "is_hub": false,
    "is_destination": false,
    "type": "medium_airport",
    "country": "China",
    "city": "Dongying",
    "latitude": 37.5085983276,
    "longitude": 118.788002014,
    "gps_code": "ZSDY",
    "iata_code": "DOY",
    "connection": []
  },
  {
    "name": "Xingcheng Air Base",
    "is_hub": false,
    "is_destination": false,
    "type": "medium_airport",
    "country": "China",
    "city": "",
    "latitude": 40.580299377399996,
    "longitude": 120.697998047,
    "gps_code": "ZYXC",
    "iata_code": "XEN",
    "connection": []
  },
  {
    "name": "Altay Air Base",
    "is_hub": false,
    "is_destination": false,
    "type": "medium_airport",
    "country": "China",
    "city": "Altay",
    "latitude": 47.7498855591,
    "longitude": 88.08580780030002,
    "gps_code": "ZWAT",
    "iata_code": "AAT",
    "connection": []
  },
  {
    "name": "Tianshui Maijishan Airport",
    "is_hub": false,
    "is_destination": false,
    "type": "medium_airport",
    "country": "China",
    "city": "Tianshui",
    "latitude": 34.5593986511,
    "longitude": 105.86000061,
    "gps_code": "ZLTS",
    "iata_code": "THQ",
    "connection": []
  },
  {
    "name": "Zhangye Ganzhou Airport",
    "is_hub": false,
    "is_destination": false,
    "type": "medium_airport",
    "country": "China",
    "city": "Zhangye",
    "latitude": 38.8018989563,
    "longitude": 100.675003052,
    "gps_code": "ZLZY",
    "iata_code": "YZY",
    "connection": []
  },
  {
    "name": "Dandong Airport",
    "is_hub": false,
    "is_destination": false,
    "type": "medium_airport",
    "country": "China",
    "city": "Dandong",
    "latitude": 40.0247,
    "longitude": 124.286003,
    "gps_code": "ZYDD",
    "iata_code": "DDG",
    "connection": []
  },
  {
    "name": "Lefkoniko Airport",
    "is_hub": false,
    "is_destination": false,
    "type": "medium_airport",
    "country": "Cyprus",
    "city": "Ge\u00e7itkale",
    "latitude": 35.235947,
    "longitude": 33.724358,
    "gps_code": "LCGK",
    "iata_code": "GEC",
    "connection": []
  },
  {
    "name": "Cat Lake Airport",
    "is_hub": false,
    "is_destination": false,
    "type": "medium_airport",
    "country": "Canada",
    "city": "Cat Lake",
    "latitude": 51.72719955444336,
    "longitude": -91.82440185546875,
    "gps_code": "CYAC",
    "iata_code": "YAC",
    "connection": []
  },
  {
    "name": "Fort Frances Municipal Airport",
    "is_hub": false,
    "is_destination": false,
    "type": "medium_airport",
    "country": "Canada",
    "city": "Fort Frances",
    "latitude": 48.65420150756836,
    "longitude": -93.439697265625,
    "gps_code": "CYAG",
    "iata_code": "YAG",
    "connection": []
  },
  {
    "name": "La Grande-4 Airport",
    "is_hub": false,
    "is_destination": false,
    "type": "medium_airport",
    "country": "Canada",
    "city": "La Grande-4",
    "latitude": 53.754699707,
    "longitude": -73.6753005981,
    "gps_code": "CYAH",
    "iata_code": "YAH",
    "connection": []
  },
  {
    "name": "Alert Bay Airport",
    "is_hub": false,
    "is_destination": false,
    "type": "medium_airport",
    "country": "Canada",
    "city": "Alert Bay",
    "latitude": 50.58219909667969,
    "longitude": -126.91600036621094,
    "gps_code": "CYAL",
    "iata_code": "YAL",
    "connection": []
  },
  {
    "name": "Sault Ste Marie Airport",
    "is_hub": false,
    "is_destination": false,
    "type": "medium_airport",
    "country": "Canada",
    "city": "Sault Ste Marie",
    "latitude": 46.48500061035156,
    "longitude": -84.5093994140625,
    "gps_code": "CYAM",
    "iata_code": "YAM",
    "connection": []
  },
  {
    "name": "Kasabonika Airport",
    "is_hub": false,
    "is_destination": false,
    "type": "medium_airport",
    "country": "Canada",
    "city": "Kasabonika",
    "latitude": 53.52470016479492,
    "longitude": -88.6427993774414,
    "gps_code": "CYAQ",
    "iata_code": "XKS",
    "connection": []
  },
  {
    "name": "Kangirsuk Airport",
    "is_hub": false,
    "is_destination": false,
    "type": "medium_airport",
    "country": "Canada",
    "city": "Kangirsuk",
    "latitude": 60.027198791503906,
    "longitude": -69.99919891357422,
    "gps_code": "CYAS",
    "iata_code": "YKG",
    "connection": []
  },
  {
    "name": "Attawapiskat Airport",
    "is_hub": false,
    "is_destination": false,
    "type": "medium_airport",
    "country": "Canada",
    "city": "Attawapiskat",
    "latitude": 52.9275016784668,
    "longitude": -82.43190002441406,
    "gps_code": "CYAT",
    "iata_code": "YAT",
    "connection": []
  },
  {
    "name": "St. Anthony Airport",
    "is_hub": false,
    "is_destination": false,
    "type": "medium_airport",
    "country": "Canada",
    "city": "St. Anthony",
    "latitude": 51.3918991089,
    "longitude": -56.083099365200006,
    "gps_code": "CYAY",
    "iata_code": "YAY",
    "connection": []
  },
  {
    "name": "Tofino / Long Beach Airport",
    "is_hub": false,
    "is_destination": false,
    "type": "medium_airport",
    "country": "Canada",
    "city": "Tofino",
    "latitude": 49.079833,
    "longitude": -125.775583,
    "gps_code": "CYAZ",
    "iata_code": "YAZ",
    "connection": []
  },
  {
    "name": "Kugaaruk Airport",
    "is_hub": false,
    "is_destination": false,
    "type": "medium_airport",
    "country": "Canada",
    "city": "Kugaaruk",
    "latitude": 68.534401,
    "longitude": -89.808098,
    "gps_code": "CYBB",
    "iata_code": "YBB",
    "connection": []
  },
  {
    "name": "Baie Comeau Airport",
    "is_hub": false,
    "is_destination": false,
    "type": "medium_airport",
    "country": "Canada",
    "city": "Baie-Comeau",
    "latitude": 49.13249969482422,
    "longitude": -68.20439910888672,
    "gps_code": "CYBC",
    "iata_code": "YBC",
    "connection": []
  },
  {
    "name": "Bella Coola Airport",
    "is_hub": false,
    "is_destination": false,
    "type": "medium_airport",
    "country": "Canada",
    "city": "Bella Coola",
    "latitude": 52.387501,
    "longitude": -126.596001,
    "gps_code": "CYBD",
    "iata_code": "QBC",
    "connection": []
  },
  {
    "name": "Uranium City Airport",
    "is_hub": false,
    "is_destination": false,
    "type": "medium_airport",
    "country": "Canada",
    "city": "Uranium City",
    "latitude": 59.5614013671875,
    "longitude": -108.48100280761719,
    "gps_code": "CYBE",
    "iata_code": "YBE",
    "connection": []
  },
  {
    "name": "Bonnyville Airport",
    "is_hub": false,
    "is_destination": false,
    "type": "medium_airport",
    "country": "Canada",
    "city": "Bonnyville",
    "latitude": 54.304199,
    "longitude": -110.744003,
    "gps_code": "CYBF",
    "iata_code": "YBY",
    "connection": []
  },
  {
    "name": "CFB Bagotville",
    "is_hub": false,
    "is_destination": false,
    "type": "medium_airport",
    "country": "Canada",
    "city": "Bagotville",
    "latitude": 48.33060073852539,
    "longitude": -70.99639892578125,
    "gps_code": "CYBG",
    "iata_code": "YBG",
    "connection": []
  },
  {
    "name": "Baker Lake Airport",
    "is_hub": false,
    "is_destination": false,
    "type": "medium_airport",
    "country": "Canada",
    "city": "Baker Lake",
    "latitude": 64.29889678960001,
    "longitude": -96.077796936,
    "gps_code": "CYBK",
    "iata_code": "YBK",
    "connection": []
  },
  {
    "name": "Campbell River Airport",
    "is_hub": false,
    "is_destination": false,
    "type": "medium_airport",
    "country": "Canada",
    "city": "Campbell River",
    "latitude": 49.950801849365234,
    "longitude": -125.27100372314453,
    "gps_code": "CYBL",
    "iata_code": "YBL",
    "connection": []
  },
  {
    "name": "Tadoule Lake Airport",
    "is_hub": false,
    "is_destination": false,
    "type": "medium_airport",
    "country": "Canada",
    "city": "Tadoule Lake",
    "latitude": 58.7061,
    "longitude": -98.512199,
    "gps_code": "CYBQ",
    "iata_code": "XTL",
    "connection": []
  },
  {
    "name": "Brandon Municipal Airport",
    "is_hub": false,
    "is_destination": false,
    "type": "medium_airport",
    "country": "Canada",
    "city": "Brandon",
    "latitude": 49.91,
    "longitude": -99.951897,
    "gps_code": "CYBR",
    "iata_code": "YBR",
    "connection": []
  },
  {
    "name": "Brochet Airport",
    "is_hub": false,
    "is_destination": false,
    "type": "medium_airport",
    "country": "Canada",
    "city": "Brochet",
    "latitude": 57.8894,
    "longitude": -101.679001,
    "gps_code": "CYBT",
    "iata_code": "YBT",
    "connection": []
  },
  {
    "name": "Berens River Airport",
    "is_hub": false,
    "is_destination": false,
    "type": "medium_airport",
    "country": "Canada",
    "city": "Berens River",
    "latitude": 52.358898,
    "longitude": -97.018303,
    "gps_code": "CYBV",
    "iata_code": "YBV",
    "connection": []
  },
  {
    "name": "Lourdes de Blanc Sablon Airport",
    "is_hub": false,
    "is_destination": false,
    "type": "medium_airport",
    "country": "Canada",
    "city": "Lourdes-De-Blanc-Sablon",
    "latitude": 51.443599700899995,
    "longitude": -57.185298919699996,
    "gps_code": "CYBX",
    "iata_code": "YBX",
    "connection": []
  },
  {
    "name": "Cartwright Airport",
    "is_hub": false,
    "is_destination": false,
    "type": "medium_airport",
    "country": "Canada",
    "city": "Cartwright",
    "latitude": 53.68280029296875,
    "longitude": -57.041900634765625,
    "gps_code": "CYCA",
    "iata_code": "YRF",
    "connection": []
  },
  {
    "name": "Cambridge Bay Airport",
    "is_hub": false,
    "is_destination": false,
    "type": "medium_airport",
    "country": "Canada",
    "city": "Cambridge Bay",
    "latitude": 69.1081008911,
    "longitude": -105.138000488,
    "gps_code": "CYCB",
    "iata_code": "YCB",
    "connection": []
  },
  {
    "name": "Cornwall Regional Airport",
    "is_hub": false,
    "is_destination": false,
    "type": "medium_airport",
    "country": "Canada",
    "city": "Cornwall",
    "latitude": 45.09280014038086,
    "longitude": -74.56330108642578,
    "gps_code": "CYCC",
    "iata_code": "YCC",
    "connection": []
  },
  {
    "name": "Nanaimo Airport",
    "is_hub": false,
    "is_destination": false,
    "type": "medium_airport",
    "country": "Canada",
    "city": "Nanaimo",
    "latitude": 49.054970224899996,
    "longitude": -123.869862556,
    "gps_code": "CYCD",
    "iata_code": "YCD",
    "connection": []
  },
  {
    "name": "Centralia / James T. Field Memorial Aerodrome",
    "is_hub": false,
    "is_destination": false,
    "type": "medium_airport",
    "country": "Canada",
    "city": "Centralia",
    "latitude": 43.285599,
    "longitude": -81.508301,
    "gps_code": "CYCE",
    "iata_code": "YCE",
    "connection": []
  },
  {
    "name": "Castlegar/West Kootenay Regional Airport",
    "is_hub": false,
    "is_destination": false,
    "type": "medium_airport",
    "country": "Canada",
    "city": "Castlegar",
    "latitude": 49.2963981628,
    "longitude": -117.632003784,
    "gps_code": "CYCG",
    "iata_code": "YCG",
    "connection": []
  },
  {
    "name": "Miramichi Airport",
    "is_hub": false,
    "is_destination": false,
    "type": "medium_airport",
    "country": "Canada",
    "city": "Miramichi",
    "latitude": 47.007801,
    "longitude": -65.449203,
    "gps_code": "CYCH",
    "iata_code": "YCH",
    "connection": []
  },
  {
    "name": "Charlo Airport",
    "is_hub": false,
    "is_destination": false,
    "type": "medium_airport",
    "country": "Canada",
    "city": "Charlo",
    "latitude": 47.990799,
    "longitude": -66.330299,
    "gps_code": "CYCL",
    "iata_code": "YCL",
    "connection": []
  },
  {
    "name": "Cochrane Airport",
    "is_hub": false,
    "is_destination": false,
    "type": "medium_airport",
    "country": "Canada",
    "city": "Cochrane",
    "latitude": 49.10559844970703,
    "longitude": -81.01360321044922,
    "gps_code": "CYCN",
    "iata_code": "YCN",
    "connection": []
  },
  {
    "name": "Kugluktuk Airport",
    "is_hub": false,
    "is_destination": false,
    "type": "medium_airport",
    "country": "Canada",
    "city": "Kugluktuk",
    "latitude": 67.816704,
    "longitude": -115.143997,
    "gps_code": "CYCO",
    "iata_code": "YCO",
    "connection": []
  },
  {
    "name": "Chetwynd Airport",
    "is_hub": false,
    "is_destination": false,
    "type": "medium_airport",
    "country": "Canada",
    "city": "Chetwynd",
    "latitude": 55.687198638916016,
    "longitude": -121.62699890136719,
    "gps_code": "CYCQ",
    "iata_code": "YCQ",
    "connection": []
  },
  {
    "name": "Cross Lake (Charlie Sinclair Memorial) Airport",
    "is_hub": false,
    "is_destination": false,
    "type": "medium_airport",
    "country": "Canada",
    "city": "Cross Lake",
    "latitude": 54.610599517822266,
    "longitude": -97.76080322265625,
    "gps_code": "CYCR",
    "iata_code": "YCR",
    "connection": []
  },
  {
    "name": "Chesterfield Inlet Airport",
    "is_hub": false,
    "is_destination": false,
    "type": "medium_airport",
    "country": "Canada",
    "city": "Chesterfield Inlet",
    "latitude": 63.346900939899996,
    "longitude": -90.73110198970001,
    "gps_code": "CYCS",
    "iata_code": "YCS",
    "connection": []
  },
  {
    "name": "Clyde River Airport",
    "is_hub": false,
    "is_destination": false,
    "type": "medium_airport",
    "country": "Canada",
    "city": "Clyde River",
    "latitude": 70.4860992432,
    "longitude": -68.5167007446,
    "gps_code": "CYCY",
    "iata_code": "YCY",
    "connection": []
  },
  {
    "name": "Dawson City Airport",
    "is_hub": false,
    "is_destination": false,
    "type": "medium_airport",
    "country": "Canada",
    "city": "Dawson City",
    "latitude": 64.04309844970703,
    "longitude": -139.1280059814453,
    "gps_code": "CYDA",
    "iata_code": "YDA",
    "connection": []
  },
  {
    "name": "Burwash Airport",
    "is_hub": false,
    "is_destination": false,
    "type": "medium_airport",
    "country": "Canada",
    "city": "Burwash",
    "latitude": 61.37110137939453,
    "longitude": -139.04100036621094,
    "gps_code": "CYDB",
    "iata_code": "YDB",
    "connection": []
  },
  {
    "name": "Deer Lake Airport",
    "is_hub": false,
    "is_destination": false,
    "type": "medium_airport",
    "country": "Canada",
    "city": "Deer Lake",
    "latitude": 49.21080017089844,
    "longitude": -57.39139938354492,
    "gps_code": "CYDF",
    "iata_code": "YDF",
    "connection": []
  },
  {
    "name": "Ross River Airport",
    "is_hub": false,
    "is_destination": false,
    "type": "medium_airport",
    "country": "Canada",
    "city": "Ross River",
    "latitude": 61.9706001282,
    "longitude": -132.42300415,
    "gps_code": "CYDM",
    "iata_code": "XRR",
    "connection": []
  },
  {
    "name": "Dauphin Barker Airport",
    "is_hub": false,
    "is_destination": false,
    "type": "medium_airport",
    "country": "Canada",
    "city": "Dauphin",
    "latitude": 51.100799560546875,
    "longitude": -100.052001953125,
    "gps_code": "CYDN",
    "iata_code": "YDN",
    "connection": []
  },
  {
    "name": "Dolbeau St Felicien Airport",
    "is_hub": false,
    "is_destination": false,
    "type": "medium_airport",
    "country": "Canada",
    "city": "Dolbeau-St-F\u00e9licien",
    "latitude": 48.778499603271,
    "longitude": -72.375,
    "gps_code": "CYDO",
    "iata_code": "YDO",
    "connection": []
  },
  {
    "name": "Nain Airport",
    "is_hub": false,
    "is_destination": false,
    "type": "medium_airport",
    "country": "Canada",
    "city": "Nain",
    "latitude": 56.549198150634766,
    "longitude": -61.680301666259766,
    "gps_code": "CYDP",
    "iata_code": "YDP",
    "connection": []
  },
  {
    "name": "Dawson Creek Airport",
    "is_hub": false,
    "is_destination": false,
    "type": "medium_airport",
    "country": "Canada",
    "city": "Dawson Creek",
    "latitude": 55.7422981262207,
    "longitude": -120.18299865722656,
    "gps_code": "CYDQ",
    "iata_code": "YDQ",
    "connection": []
  },
  {
    "name": "Edmonton International Airport",
    "is_hub": false,
    "is_destination": false,
    "type": "large_airport",
    "country": "Canada",
    "city": "Edmonton",
    "latitude": 53.309700012200004,
    "longitude": -113.580001831,
    "gps_code": "CYEG",
    "iata_code": "YEG",
    "connection": []
  },
  {
    "name": "Arviat Airport",
    "is_hub": false,
    "is_destination": false,
    "type": "medium_airport",
    "country": "Canada",
    "city": "Arviat",
    "latitude": 61.0942001343,
    "longitude": -94.07080078119999,
    "gps_code": "CYEK",
    "iata_code": "YEK",
    "connection": []
  },
  {
    "name": "Elliot Lake Municipal Airport",
    "is_hub": false,
    "is_destination": false,
    "type": "medium_airport",
    "country": "Canada",
    "city": "Elliot Lake",
    "latitude": 46.351398468,
    "longitude": -82.5614013672,
    "gps_code": "CYEL",
    "iata_code": "YEL",
    "connection": []
  },
  {
    "name": "Manitoulin East Municipal Airport",
    "is_hub": false,
    "is_destination": false,
    "type": "medium_airport",
    "country": "Canada",
    "city": "Manitowaning",
    "latitude": 45.84280014038086,
    "longitude": -81.85810089111328,
    "gps_code": "CYEM",
    "iata_code": "YEM",
    "connection": []
  },
  {
    "name": "Estevan Airport",
    "is_hub": false,
    "is_destination": false,
    "type": "medium_airport",
    "country": "Canada",
    "city": "Estevan",
    "latitude": 49.2103004456,
    "longitude": -102.966003418,
    "gps_code": "CYEN",
    "iata_code": "YEN",
    "connection": []
  },
  {
    "name": "Fort Severn Airport",
    "is_hub": false,
    "is_destination": false,
    "type": "medium_airport",
    "country": "Canada",
    "city": "Fort Severn",
    "latitude": 56.01890182495117,
    "longitude": -87.67610168457031,
    "gps_code": "CYER",
    "iata_code": "YER",
    "connection": []
  },
  {
    "name": "Edson Airport",
    "is_hub": false,
    "is_destination": false,
    "type": "medium_airport",
    "country": "Canada",
    "city": "Edson",
    "latitude": 53.578899383499994,
    "longitude": -116.464996338,
    "gps_code": "CYET",
    "iata_code": "YET",
    "connection": []
  },
  {
    "name": "Inuvik Mike Zubko Airport",
    "is_hub": false,
    "is_destination": false,
    "type": "medium_airport",
    "country": "Canada",
    "city": "Inuvik",
    "latitude": 68.30419921880001,
    "longitude": -133.483001709,
    "gps_code": "CYEV",
    "iata_code": "YEV",
    "connection": []
  },
  {
    "name": "Amos/Magny Airport",
    "is_hub": false,
    "is_destination": false,
    "type": "medium_airport",
    "country": "Canada",
    "city": "Amos",
    "latitude": 48.563903,
    "longitude": -78.249702,
    "gps_code": "CYEY",
    "iata_code": "YEY",
    "connection": []
  },
  {
    "name": "Fort Albany Airport",
    "is_hub": false,
    "is_destination": false,
    "type": "medium_airport",
    "country": "Canada",
    "city": "Fort Albany",
    "latitude": 52.20140075683594,
    "longitude": -81.6968994140625,
    "gps_code": "CYFA",
    "iata_code": "YFA",
    "connection": []
  },
  {
    "name": "Iqaluit Airport",
    "is_hub": false,
    "is_destination": false,
    "type": "medium_airport",
    "country": "Canada",
    "city": "Iqaluit",
    "latitude": 63.756402,
    "longitude": -68.555801,
    "gps_code": "CYFB",
    "iata_code": "YFB",
    "connection": []
  },
  {
    "name": "Fredericton Airport",
    "is_hub": false,
    "is_destination": false,
    "type": "medium_airport",
    "country": "Canada",
    "city": "Fredericton",
    "latitude": 45.868900299072266,
    "longitude": -66.53720092773438,
    "gps_code": "CYFC",
    "iata_code": "YFC",
    "connection": []
  },
  {
    "name": "Forestville Airport",
    "is_hub": false,
    "is_destination": false,
    "type": "medium_airport",
    "country": "Canada",
    "city": "Forestville",
    "latitude": 48.74610137939453,
    "longitude": -69.09719848632812,
    "gps_code": "CYFE",
    "iata_code": "YFE",
    "connection": []
  },
  {
    "name": "Fort Hope Airport",
    "is_hub": false,
    "is_destination": false,
    "type": "medium_airport",
    "country": "Canada",
    "city": "Fort Hope",
    "latitude": 51.5619010925293,
    "longitude": -87.90779876708984,
    "gps_code": "CYFH",
    "iata_code": "YFH",
    "connection": []
  },
  {
    "name": "La Macaza / Mont-Tremblant International Inc Airport",
    "is_hub": false,
    "is_destination": false,
    "type": "medium_airport",
    "country": "Canada",
    "city": "Rivi\u00e8re Rouge",
    "latitude": 46.409400939899996,
    "longitude": -74.7799987793,
    "gps_code": "CYFJ",
    "iata_code": "YTM",
    "connection": []
  },
  {
    "name": "Flin Flon Airport",
    "is_hub": false,
    "is_destination": false,
    "type": "medium_airport",
    "country": "Canada",
    "city": "Flin Flon",
    "latitude": 54.6781005859375,
    "longitude": -101.68199920654297,
    "gps_code": "CYFO",
    "iata_code": "YFO",
    "connection": []
  },
  {
    "name": "Fort Resolution Airport",
    "is_hub": false,
    "is_destination": false,
    "type": "medium_airport",
    "country": "Canada",
    "city": "Fort Resolution",
    "latitude": 61.1808013916,
    "longitude": -113.690002441,
    "gps_code": "CYFR",
    "iata_code": "YFR",
    "connection": []
  },
  {
    "name": "Fort Simpson Airport",
    "is_hub": false,
    "is_destination": false,
    "type": "medium_airport",
    "country": "Canada",
    "city": "Fort Simpson",
    "latitude": 61.76020050048828,
    "longitude": -121.23699951171875,
    "gps_code": "CYFS",
    "iata_code": "YFS",
    "connection": []
  },
  {
    "name": "Makkovik Airport",
    "is_hub": false,
    "is_destination": false,
    "type": "medium_airport",
    "country": "Canada",
    "city": "Makkovik",
    "latitude": 55.076900482177734,
    "longitude": -59.1864013671875,
    "gps_code": "CYFT",
    "iata_code": "YMN",
    "connection": []
  },
  {
    "name": "Texada Gillies Bay Airport",
    "is_hub": false,
    "is_destination": false,
    "type": "medium_airport",
    "country": "Canada",
    "city": "Texada",
    "latitude": 49.69419860839844,
    "longitude": -124.51799774169922,
    "gps_code": "CYGB",
    "iata_code": "YGB",
    "connection": []
  },
  {
    "name": "Fort Good Hope Airport",
    "is_hub": false,
    "is_destination": false,
    "type": "medium_airport",
    "country": "Canada",
    "city": "Fort Good Hope",
    "latitude": 66.24079895019531,
    "longitude": -128.6510009765625,
    "gps_code": "CYGH",
    "iata_code": "YGH",
    "connection": []
  },
  {
    "name": "Kingston Norman Rogers Airport",
    "is_hub": false,
    "is_destination": false,
    "type": "medium_airport",
    "country": "Canada",
    "city": "Kingston",
    "latitude": 44.22529983520508,
    "longitude": -76.5969009399414,
    "gps_code": "CYGK",
    "iata_code": "YGK",
    "connection": []
  },
  {
    "name": "La Grande Rivi\u00e8re Airport",
    "is_hub": false,
    "is_destination": false,
    "type": "medium_airport",
    "country": "Canada",
    "city": "La Grande Rivi\u00e8re",
    "latitude": 53.625301361083984,
    "longitude": -77.7042007446289,
    "gps_code": "CYGL",
    "iata_code": "YGL",
    "connection": []
  },
  {
    "name": "Gimli Industrial Park Airport",
    "is_hub": false,
    "is_destination": false,
    "type": "medium_airport",
    "country": "Canada",
    "city": "Gimli",
    "latitude": 50.62810134887695,
    "longitude": -97.04329681396484,
    "gps_code": "CYGM",
    "iata_code": "YGM",
    "connection": []
  },
  {
    "name": "Gods Lake Narrows Airport",
    "is_hub": false,
    "is_destination": false,
    "type": "medium_airport",
    "country": "Canada",
    "city": "Gods Lake Narrows",
    "latitude": 54.55889892578125,
    "longitude": -94.49140167236328,
    "gps_code": "CYGO",
    "iata_code": "YGO",
    "connection": []
  },
  {
    "name": "Gasp\u00e9 (Michel-Pouliot) Airport",
    "is_hub": false,
    "is_destination": false,
    "type": "medium_airport",
    "country": "Canada",
    "city": "Gasp\u00e9",
    "latitude": 48.7752990723,
    "longitude": -64.4785995483,
    "gps_code": "CYGP",
    "iata_code": "YGP",
    "connection": []
  },
  {
    "name": "Geraldton Greenstone Regional Airport",
    "is_hub": false,
    "is_destination": false,
    "type": "medium_airport",
    "country": "Canada",
    "city": "Geraldton",
    "latitude": 49.77830123901367,
    "longitude": -86.93939971923828,
    "gps_code": "CYGQ",
    "iata_code": "YGQ",
    "connection": []
  },
  {
    "name": "\u00celes-de-la-Madeleine Airport",
    "is_hub": false,
    "is_destination": false,
    "type": "medium_airport",
    "country": "Canada",
    "city": "\u00celes-de-la-Madeleine",
    "latitude": 47.42470169067383,
    "longitude": -61.778099060058594,
    "gps_code": "CYGR",
    "iata_code": "YGR",
    "connection": []
  },
  {
    "name": "Igloolik Airport",
    "is_hub": false,
    "is_destination": false,
    "type": "medium_airport",
    "country": "Canada",
    "city": "Igloolik",
    "latitude": 69.3647003174,
    "longitude": -81.8161010742,
    "gps_code": "CYGT",
    "iata_code": "YGT",
    "connection": []
  },
  {
    "name": "Havre St Pierre Airport",
    "is_hub": false,
    "is_destination": false,
    "type": "medium_airport",
    "country": "Canada",
    "city": "Havre St-Pierre",
    "latitude": 50.281898498535156,
    "longitude": -63.61140060424805,
    "gps_code": "CYGV",
    "iata_code": "YGV",
    "connection": []
  },
  {
    "name": "Kuujjuarapik Airport",
    "is_hub": false,
    "is_destination": false,
    "type": "medium_airport",
    "country": "Canada",
    "city": "Kuujjuarapik",
    "latitude": 55.281898498535156,
    "longitude": -77.76529693603516,
    "gps_code": "CYGW",
    "iata_code": "YGW",
    "connection": []
  },
  {
    "name": "Gillam Airport",
    "is_hub": false,
    "is_destination": false,
    "type": "medium_airport",
    "country": "Canada",
    "city": "Gillam",
    "latitude": 56.35749816894531,
    "longitude": -94.71060180664062,
    "gps_code": "CYGX",
    "iata_code": "YGX",
    "connection": []
  },
  {
    "name": "Grise Fiord Airport",
    "is_hub": false,
    "is_destination": false,
    "type": "medium_airport",
    "country": "Canada",
    "city": "Grise Fiord",
    "latitude": 76.4261016846,
    "longitude": -82.90920257570001,
    "gps_code": "CYGZ",
    "iata_code": "YGZ",
    "connection": []
  },
  {
    "name": "Quaqtaq Airport",
    "is_hub": false,
    "is_destination": false,
    "type": "medium_airport",
    "country": "Canada",
    "city": "Quaqtaq",
    "latitude": 61.0463981628418,
    "longitude": -69.6177978515625,
    "gps_code": "CYHA",
    "iata_code": "YQC",
    "connection": []
  },
  {
    "name": "Dryden Regional Airport",
    "is_hub": false,
    "is_destination": false,
    "type": "medium_airport",
    "country": "Canada",
    "city": "Dryden",
    "latitude": 49.831699,
    "longitude": -92.744202,
    "gps_code": "CYHD",
    "iata_code": "YHD",
    "connection": []
  },
  {
    "name": "Hope Airport",
    "is_hub": false,
    "is_destination": false,
    "type": "medium_airport",
    "country": "Canada",
    "city": "Hope",
    "latitude": 49.3683013916,
    "longitude": -121.498001099,
    "gps_code": "CYHE",
    "iata_code": "YHE",
    "connection": []
  },
  {
    "name": "Hearst Ren\u00e9 Fontaine Municipal Airport",
    "is_hub": false,
    "is_destination": false,
    "type": "medium_airport",
    "country": "Canada",
    "city": "Hearst",
    "latitude": 49.71419906616211,
    "longitude": -83.68609619140625,
    "gps_code": "CYHF",
    "iata_code": "YHF",
    "connection": []
  },
  {
    "name": "Nemiscau Airport",
    "is_hub": false,
    "is_destination": false,
    "type": "medium_airport",
    "country": "Canada",
    "city": "Nemiscau",
    "latitude": 51.69110107421875,
    "longitude": -76.1355972290039,
    "gps_code": "CYHH",
    "iata_code": "YNS",
    "connection": []
  },
  {
    "name": "Ulukhaktok Holman Airport",
    "is_hub": false,
    "is_destination": false,
    "type": "medium_airport",
    "country": "Canada",
    "city": "Ulukhaktok",
    "latitude": 70.76280212402344,
    "longitude": -117.80599975585938,
    "gps_code": "CYHI",
    "iata_code": "YHI",
    "connection": []
  },
  {
    "name": "Gjoa Haven Airport",
    "is_hub": false,
    "is_destination": false,
    "type": "medium_airport",
    "country": "Canada",
    "city": "Gjoa Haven",
    "latitude": 68.635597229,
    "longitude": -95.84970092770001,
    "gps_code": "CYHK",
    "iata_code": "YHK",
    "connection": []
  },
  {
    "name": "John C. Munro Hamilton International Airport",
    "is_hub": false,
    "is_destination": false,
    "type": "medium_airport",
    "country": "Canada",
    "city": "Hamilton",
    "latitude": 43.173599243199995,
    "longitude": -79.93499755859999,
    "gps_code": "CYHM",
    "iata_code": "YHM",
    "connection": []
  },
  {
    "name": "Hornepayne Municipal Airport",
    "is_hub": false,
    "is_destination": false,
    "type": "medium_airport",
    "country": "Canada",
    "city": "Hornepayne",
    "latitude": 49.19309997558594,
    "longitude": -84.75890350341797,
    "gps_code": "CYHN",
    "iata_code": "YHN",
    "connection": []
  },
  {
    "name": "Hopedale Airport",
    "is_hub": false,
    "is_destination": false,
    "type": "medium_airport",
    "country": "Canada",
    "city": "Hopedale",
    "latitude": 55.448299407958984,
    "longitude": -60.228599548339844,
    "gps_code": "CYHO",
    "iata_code": "YHO",
    "connection": []
  },
  {
    "name": "Chevery Airport",
    "is_hub": false,
    "is_destination": false,
    "type": "medium_airport",
    "country": "Canada",
    "city": "Chevery",
    "latitude": 50.46889877319336,
    "longitude": -59.63669967651367,
    "gps_code": "CYHR",
    "iata_code": "YHR",
    "connection": []
  },
  {
    "name": "Haines Junction Airport",
    "is_hub": false,
    "is_destination": false,
    "type": "medium_airport",
    "country": "Canada",
    "city": "Haines Junction",
    "latitude": 60.78919982910156,
    "longitude": -137.54600524902344,
    "gps_code": "CYHT",
    "iata_code": "YHT",
    "connection": []
  },
  {
    "name": "Montr\u00e9al / Saint-Hubert Airport",
    "is_hub": false,
    "is_destination": false,
    "type": "medium_airport",
    "country": "Canada",
    "city": "Montr\u00e9al",
    "latitude": 45.5175018311,
    "longitude": -73.4169006348,
    "gps_code": "CYHU",
    "iata_code": "YHU",
    "connection": []
  },
  {
    "name": "Hay River / Merlyn Carter Airport",
    "is_hub": false,
    "is_destination": false,
    "type": "medium_airport",
    "country": "Canada",
    "city": "Hay River",
    "latitude": 60.8396987915,
    "longitude": -115.782997131,
    "gps_code": "CYHY",
    "iata_code": "YHY",
    "connection": []
  },
  {
    "name": "Halifax / Stanfield International Airport",
    "is_hub": false,
    "is_destination": false,
    "type": "large_airport",
    "country": "Canada",
    "city": "Halifax",
    "latitude": 44.8807983398,
    "longitude": -63.5085983276,
    "gps_code": "CYHZ",
    "iata_code": "YHZ",
    "connection": []
  },
  {
    "name": "Atikokan Municipal Airport",
    "is_hub": false,
    "is_destination": false,
    "type": "medium_airport",
    "country": "Canada",
    "city": "Atikokan",
    "latitude": 48.7738990784,
    "longitude": -91.6386032104,
    "gps_code": "CYIB",
    "iata_code": "YIB",
    "connection": []
  },
  {
    "name": "Digby / Annapolis Regional Airport",
    "is_hub": false,
    "is_destination": false,
    "type": "medium_airport",
    "country": "Canada",
    "city": "Digby",
    "latitude": 44.5458450365,
    "longitude": -65.7854247093,
    "gps_code": "CYID",
    "iata_code": "YDG",
    "connection": []
  },
  {
    "name": "St Augustin Airport",
    "is_hub": false,
    "is_destination": false,
    "type": "medium_airport",
    "country": "Canada",
    "city": "St-Augustin",
    "latitude": 51.2117004395,
    "longitude": -58.6582984924,
    "gps_code": "CYIF",
    "iata_code": "YIF",
    "connection": []
  },
  {
    "name": "Ivujivik Airport",
    "is_hub": false,
    "is_destination": false,
    "type": "medium_airport",
    "country": "Canada",
    "city": "Ivujivik",
    "latitude": 62.417301177978516,
    "longitude": -77.92530059814453,
    "gps_code": "CYIK",
    "iata_code": "YIK",
    "connection": []
  },
  {
    "name": "Pond Inlet Airport",
    "is_hub": false,
    "is_destination": false,
    "type": "medium_airport",
    "country": "Canada",
    "city": "Pond Inlet",
    "latitude": 72.6832962036,
    "longitude": -77.9666976929,
    "gps_code": "CYIO",
    "iata_code": "YIO",
    "connection": []
  },
  {
    "name": "Island Lake Airport",
    "is_hub": false,
    "is_destination": false,
    "type": "medium_airport",
    "country": "Canada",
    "city": "Island Lake",
    "latitude": 53.857200622558594,
    "longitude": -94.65360260009766,
    "gps_code": "CYIV",
    "iata_code": "YIV",
    "connection": []
  },
  {
    "name": "Fort Liard Airport",
    "is_hub": false,
    "is_destination": false,
    "type": "medium_airport",
    "country": "Canada",
    "city": "Fort Liard",
    "latitude": 60.235801696799996,
    "longitude": -123.46900177,
    "gps_code": "CYJF",
    "iata_code": "YJF",
    "connection": []
  },
  {
    "name": "St Jean Airport",
    "is_hub": false,
    "is_destination": false,
    "type": "medium_airport",
    "country": "Canada",
    "city": "St Jean",
    "latitude": 45.29439926147461,
    "longitude": -73.28109741210938,
    "gps_code": "CYJN",
    "iata_code": "YJN",
    "connection": []
  },
  {
    "name": "Stephenville Airport",
    "is_hub": false,
    "is_destination": false,
    "type": "medium_airport",
    "country": "Canada",
    "city": "Stephenville",
    "latitude": 48.5442008972168,
    "longitude": -58.54999923706055,
    "gps_code": "CYJT",
    "iata_code": "YJT",
    "connection": []
  },
  {
    "name": "Kamloops Airport",
    "is_hub": false,
    "is_destination": false,
    "type": "medium_airport",
    "country": "Canada",
    "city": "Kamloops",
    "latitude": 50.7022018433,
    "longitude": -120.444000244,
    "gps_code": "CYKA",
    "iata_code": "YKA",
    "connection": []
  },
  {
    "name": "Aklavik/Freddie Carmichael Airport",
    "is_hub": false,
    "is_destination": false,
    "type": "medium_airport",
    "country": "Canada",
    "city": "Aklavik",
    "latitude": 68.223297,
    "longitude": -135.00599,
    "gps_code": "CYKD",
    "iata_code": "LAK",
    "connection": []
  },
  {
    "name": "Waterloo Airport",
    "is_hub": false,
    "is_destination": false,
    "type": "medium_airport",
    "country": "Canada",
    "city": "Kitchener",
    "latitude": 43.460800170899994,
    "longitude": -80.3786010742,
    "gps_code": "CYKF",
    "iata_code": "YKF",
    "connection": []
  },
  {
    "name": "Kangiqsujuaq (Wakeham Bay) Airport",
    "is_hub": false,
    "is_destination": false,
    "type": "medium_airport",
    "country": "Canada",
    "city": "Kangiqsujuaq",
    "latitude": 61.5886001587,
    "longitude": -71.929397583,
    "gps_code": "CYKG",
    "iata_code": "YWB",
    "connection": []
  },
  {
    "name": "Key Lake Airport",
    "is_hub": false,
    "is_destination": false,
    "type": "medium_airport",
    "country": "Canada",
    "city": "Key Lake",
    "latitude": 57.256099700927734,
    "longitude": -105.61799621582031,
    "gps_code": "CYKJ",
    "iata_code": "YKJ",
    "connection": []
  },
  {
    "name": "Schefferville Airport",
    "is_hub": false,
    "is_destination": false,
    "type": "medium_airport",
    "country": "Canada",
    "city": "Schefferville",
    "latitude": 54.805301666259766,
    "longitude": -66.8052978515625,
    "gps_code": "CYKL",
    "iata_code": "YKL",
    "connection": []
  },
  {
    "name": "Akulivik Airport",
    "is_hub": false,
    "is_destination": false,
    "type": "medium_airport",
    "country": "Canada",
    "city": "Akulivik",
    "latitude": 60.818599700927734,
    "longitude": -78.14859771728516,
    "gps_code": "CYKO",
    "iata_code": "AKV",
    "connection": []
  },
  {
    "name": "Waskaganish Airport",
    "is_hub": false,
    "is_destination": false,
    "type": "medium_airport",
    "country": "Canada",
    "city": "Waskaganish",
    "latitude": 51.47330093383789,
    "longitude": -78.75830078125,
    "gps_code": "CYKQ",
    "iata_code": "YKQ",
    "connection": []
  },
  {
    "name": "Kirkland Lake Airport",
    "is_hub": false,
    "is_destination": false,
    "type": "medium_airport",
    "country": "Canada",
    "city": "Kirkland Lake",
    "latitude": 48.21030044555664,
    "longitude": -79.98139953613281,
    "gps_code": "CYKX",
    "iata_code": "YKX",
    "connection": []
  },
  {
    "name": "Kindersley Airport",
    "is_hub": false,
    "is_destination": false,
    "type": "medium_airport",
    "country": "Canada",
    "city": "Kindersley",
    "latitude": 51.5175018311,
    "longitude": -109.180999756,
    "gps_code": "CYKY",
    "iata_code": "YKY",
    "connection": []
  },
  {
    "name": "Buttonville Municipal Airport",
    "is_hub": false,
    "is_destination": true,
    "type": "medium_airport",
    "country": "Canada",
    "city": "Toronto",
    "latitude": 43.86220169067383,
    "longitude": -79.37000274658203,
    "gps_code": "CYKZ",
    "iata_code": "YKZ",
    "connection": []
  },
  {
    "name": "Aupaluk Airport",
    "is_hub": false,
    "is_destination": false,
    "type": "medium_airport",
    "country": "Canada",
    "city": "Aupaluk",
    "latitude": 59.29669952392578,
    "longitude": -69.59970092773438,
    "gps_code": "CYLA",
    "iata_code": "YPJ",
    "connection": []
  },
  {
    "name": "Kimmirut Airport",
    "is_hub": false,
    "is_destination": false,
    "type": "medium_airport",
    "country": "Canada",
    "city": "Kimmirut",
    "latitude": 62.8499984741,
    "longitude": -69.88330078119999,
    "gps_code": "CYLC",
    "iata_code": "YLC",
    "connection": []
  },
  {
    "name": "Chapleau Airport",
    "is_hub": false,
    "is_destination": false,
    "type": "medium_airport",
    "country": "Canada",
    "city": "Chapleau",
    "latitude": 47.81999969482422,
    "longitude": -83.3467025756836,
    "gps_code": "CYLD",
    "iata_code": "YLD",
    "connection": []
  },
  {
    "name": "Lansdowne House Airport",
    "is_hub": false,
    "is_destination": false,
    "type": "medium_airport",
    "country": "Canada",
    "city": "Lansdowne House",
    "latitude": 52.19559860229492,
    "longitude": -87.93419647216797,
    "gps_code": "CYLH",
    "iata_code": "YLH",
    "connection": []
  },
  {
    "name": "Meadow Lake Airport",
    "is_hub": false,
    "is_destination": false,
    "type": "medium_airport",
    "country": "Canada",
    "city": "Meadow Lake",
    "latitude": 54.125301361083984,
    "longitude": -108.52300262451172,
    "gps_code": "CYLJ",
    "iata_code": "YLJ",
    "connection": []
  },
  {
    "name": "Lutselk'e Airport",
    "is_hub": false,
    "is_destination": false,
    "type": "medium_airport",
    "country": "Canada",
    "city": "Lutselk'e",
    "latitude": 62.418303,
    "longitude": -110.681998,
    "gps_code": "CYLK",
    "iata_code": "YSG",
    "connection": []
  },
  {
    "name": "Lloydminster Airport",
    "is_hub": false,
    "is_destination": false,
    "type": "medium_airport",
    "country": "Canada",
    "city": "Lloydminster",
    "latitude": 53.309200286865234,
    "longitude": -110.072998046875,
    "gps_code": "CYLL",
    "iata_code": "YLL",
    "connection": []
  },
  {
    "name": "Leaf Rapids Airport",
    "is_hub": false,
    "is_destination": false,
    "type": "medium_airport",
    "country": "Canada",
    "city": "Leaf Rapids",
    "latitude": 56.513301849365234,
    "longitude": -99.98529815673828,
    "gps_code": "CYLR",
    "iata_code": "YLR",
    "connection": []
  },
  {
    "name": "Alert Airport",
    "is_hub": false,
    "is_destination": false,
    "type": "medium_airport",
    "country": "Canada",
    "city": "Alert",
    "latitude": 82.51779937740001,
    "longitude": -62.2806015015,
    "gps_code": "CYLT",
    "iata_code": "YLT",
    "connection": []
  },
  {
    "name": "Kangiqsualujjuaq (Georges River) Airport",
    "is_hub": false,
    "is_destination": false,
    "type": "medium_airport",
    "country": "Canada",
    "city": "Kangiqsualujjuaq",
    "latitude": 58.71139907836914,
    "longitude": -65.9927978515625,
    "gps_code": "CYLU",
    "iata_code": "XGR",
    "connection": []
  },
  {
    "name": "Kelowna International Airport",
    "is_hub": false,
    "is_destination": false,
    "type": "medium_airport",
    "country": "Canada",
    "city": "Kelowna",
    "latitude": 49.9561004639,
    "longitude": -119.377998352,
    "gps_code": "CYLW",
    "iata_code": "YLW",
    "connection": []
  },
  {
    "name": "Mayo Airport",
    "is_hub": false,
    "is_destination": false,
    "type": "medium_airport",
    "country": "Canada",
    "city": "Mayo",
    "latitude": 63.61640167236328,
    "longitude": -135.8679962158203,
    "gps_code": "CYMA",
    "iata_code": "YMA",
    "connection": []
  },
  {
    "name": "Matane Airport",
    "is_hub": false,
    "is_destination": false,
    "type": "medium_airport",
    "country": "Canada",
    "city": "Matane",
    "latitude": 48.85689926147461,
    "longitude": -67.45330047607422,
    "gps_code": "CYME",
    "iata_code": "YME",
    "connection": []
  },
  {
    "name": "Manitouwadge Airport",
    "is_hub": false,
    "is_destination": false,
    "type": "medium_airport",
    "country": "Canada",
    "city": "Manitouwadge",
    "latitude": 49.083900451660156,
    "longitude": -85.86060333251953,
    "gps_code": "CYMG",
    "iata_code": "YMG",
    "connection": []
  },
  {
    "name": "Mary's Harbour Airport",
    "is_hub": false,
    "is_destination": false,
    "type": "medium_airport",
    "country": "Canada",
    "city": "Mary's Harbour",
    "latitude": 52.302799224853516,
    "longitude": -55.847198486328125,
    "gps_code": "CYMH",
    "iata_code": "YMH",
    "connection": []
  },
  {
    "name": "Moose Jaw Air Vice Marshal C. M. McEwen Airport",
    "is_hub": false,
    "is_destination": false,
    "type": "medium_airport",
    "country": "Canada",
    "city": "Moose Jaw",
    "latitude": 50.330299377441406,
    "longitude": -105.55899810791016,
    "gps_code": "CYMJ",
    "iata_code": "YMJ",
    "connection": []
  },
  {
    "name": "Charlevoix Airport",
    "is_hub": false,
    "is_destination": false,
    "type": "medium_airport",
    "country": "Canada",
    "city": "Charlevoix",
    "latitude": 47.59749984741211,
    "longitude": -70.2238998413086,
    "gps_code": "CYML",
    "iata_code": "YML",
    "connection": []
  },
  {
    "name": "Fort McMurray Airport",
    "is_hub": false,
    "is_destination": false,
    "type": "medium_airport",
    "country": "Canada",
    "city": "Fort McMurray",
    "latitude": 56.653301239,
    "longitude": -111.222000122,
    "gps_code": "CYMM",
    "iata_code": "YMM",
    "connection": []
  },
  {
    "name": "Moosonee Airport",
    "is_hub": false,
    "is_destination": false,
    "type": "medium_airport",
    "country": "Canada",
    "city": "Moosonee",
    "latitude": 51.291099548339844,
    "longitude": -80.60780334472656,
    "gps_code": "CYMO",
    "iata_code": "YMO",
    "connection": []
  },
  {
    "name": "Chapais Airport",
    "is_hub": false,
    "is_destination": false,
    "type": "medium_airport",
    "country": "Canada",
    "city": "Chibougamau",
    "latitude": 49.77190017700195,
    "longitude": -74.5280990600586,
    "gps_code": "CYMT",
    "iata_code": "YMT",
    "connection": []
  },
  {
    "name": "Umiujaq Airport",
    "is_hub": false,
    "is_destination": false,
    "type": "medium_airport",
    "country": "Canada",
    "city": "Umiujaq",
    "latitude": 56.53609848022461,
    "longitude": -76.51830291748047,
    "gps_code": "CYMU",
    "iata_code": "YUD",
    "connection": []
  },
  {
    "name": "Montreal International (Mirabel) Airport",
    "is_hub": false,
    "is_destination": false,
    "type": "medium_airport",
    "country": "Canada",
    "city": "Montr\u00e9al",
    "latitude": 45.679501,
    "longitude": -74.038696,
    "gps_code": "CYMX",
    "iata_code": "YMX",
    "connection": []
  },
  {
    "name": "Natashquan Airport",
    "is_hub": false,
    "is_destination": false,
    "type": "medium_airport",
    "country": "Canada",
    "city": "Natashquan",
    "latitude": 50.189998626708984,
    "longitude": -61.78919982910156,
    "gps_code": "CYNA",
    "iata_code": "YNA",
    "connection": []
  },
  {
    "name": "Wemindji Airport",
    "is_hub": false,
    "is_destination": false,
    "type": "medium_airport",
    "country": "Canada",
    "city": "Wemindji",
    "latitude": 53.01060104370117,
    "longitude": -78.83110046386719,
    "gps_code": "CYNC",
    "iata_code": "YNC",
    "connection": []
  },
  {
    "name": "Ottawa / Gatineau Airport",
    "is_hub": false,
    "is_destination": false,
    "type": "medium_airport",
    "country": "Canada",
    "city": "Gatineau",
    "latitude": 45.521701812699995,
    "longitude": -75.5635986328,
    "gps_code": "CYND",
    "iata_code": "YND",
    "connection": []
  },
  {
    "name": "Norway House Airport",
    "is_hub": false,
    "is_destination": false,
    "type": "medium_airport",
    "country": "Canada",
    "city": "Norway House",
    "latitude": 53.95830154418945,
    "longitude": -97.84420013427734,
    "gps_code": "CYNE",
    "iata_code": "YNE",
    "connection": []
  },
  {
    "name": "Points North Landing Airport",
    "is_hub": false,
    "is_destination": false,
    "type": "medium_airport",
    "country": "Canada",
    "city": "Points North Landing",
    "latitude": 58.27669906616211,
    "longitude": -104.08200073242188,
    "gps_code": "CYNL",
    "iata_code": "YNL",
    "connection": []
  },
  {
    "name": "Matagami Airport",
    "is_hub": false,
    "is_destination": false,
    "type": "medium_airport",
    "country": "Canada",
    "city": "Matagami",
    "latitude": 49.76169967651367,
    "longitude": -77.80280303955078,
    "gps_code": "CYNM",
    "iata_code": "YNM",
    "connection": []
  },
  {
    "name": "Ekati Airport",
    "is_hub": false,
    "is_destination": false,
    "type": "medium_airport",
    "country": "Canada",
    "city": "Ekati",
    "latitude": 64.6988983154,
    "longitude": -110.614997864,
    "gps_code": "CYOA",
    "iata_code": "YOA",
    "connection": []
  },
  {
    "name": "Old Crow Airport",
    "is_hub": false,
    "is_destination": false,
    "type": "medium_airport",
    "country": "Canada",
    "city": "Old Crow",
    "latitude": 67.57060241699219,
    "longitude": -139.83900451660156,
    "gps_code": "CYOC",
    "iata_code": "YOC",
    "connection": []
  },
  {
    "name": "CFB Cold Lake",
    "is_hub": false,
    "is_destination": false,
    "type": "medium_airport",
    "country": "Canada",
    "city": "Cold Lake",
    "latitude": 54.404998779296875,
    "longitude": -110.27899932861328,
    "gps_code": "CYOD",
    "iata_code": "YOD",
    "connection": []
  },
  {
    "name": "Oxford House Airport",
    "is_hub": false,
    "is_destination": false,
    "type": "medium_airport",
    "country": "Canada",
    "city": "Oxford House",
    "latitude": 54.93330001831055,
    "longitude": -95.27890014648438,
    "gps_code": "CYOH",
    "iata_code": "YOH",
    "connection": []
  },
  {
    "name": "High Level Airport",
    "is_hub": false,
    "is_destination": false,
    "type": "medium_airport",
    "country": "Canada",
    "city": "High Level",
    "latitude": 58.62139892578125,
    "longitude": -117.16500091552734,
    "gps_code": "CYOJ",
    "iata_code": "YOJ",
    "connection": []
  },
  {
    "name": "Toronto/Oshawa Executive Airport",
    "is_hub": false,
    "is_destination": false,
    "type": "medium_airport",
    "country": "Canada",
    "city": "Oshawa",
    "latitude": 43.922798,
    "longitude": -78.894997,
    "gps_code": "CYOO",
    "iata_code": "YOO",
    "connection": []
  },
  {
    "name": "Rainbow Lake Airport",
    "is_hub": false,
    "is_destination": false,
    "type": "medium_airport",
    "country": "Canada",
    "city": "Rainbow Lake",
    "latitude": 58.49140167236328,
    "longitude": -119.40799713134766,
    "gps_code": "CYOP",
    "iata_code": "YOP",
    "connection": []
  },
  {
    "name": "Owen Sound / Billy Bishop Regional Airport",
    "is_hub": false,
    "is_destination": false,
    "type": "medium_airport",
    "country": "Canada",
    "city": "Owen Sound",
    "latitude": 44.5903015137,
    "longitude": -80.8375015259,
    "gps_code": "CYOS",
    "iata_code": "YOS",
    "connection": []
  },
  {
    "name": "Ottawa Macdonald-Cartier International Airport",
    "is_hub": false,
    "is_destination": true,
    "type": "large_airport",
    "country": "Canada",
    "city": "Ottawa",
    "latitude": 45.3224983215332,
    "longitude": -75.66919708251953,
    "gps_code": "CYOW",
    "iata_code": "YOW",
    "connection": []
  },
  {
    "name": "Prince Albert Glass Field",
    "is_hub": false,
    "is_destination": false,
    "type": "medium_airport",
    "country": "Canada",
    "city": "Prince Albert",
    "latitude": 53.214199066199996,
    "longitude": -105.672996521,
    "gps_code": "CYPA",
    "iata_code": "YPA",
    "connection": []
  },
  {
    "name": "Paulatuk (Nora Aliqatchialuk Ruben) Airport",
    "is_hub": false,
    "is_destination": false,
    "type": "medium_airport",
    "country": "Canada",
    "city": "Paulatuk",
    "latitude": 69.3608381154,
    "longitude": -124.075469971,
    "gps_code": "CYPC",
    "iata_code": "YPC",
    "connection": []
  },
  {
    "name": "Port Hawkesbury Airport",
    "is_hub": false,
    "is_destination": false,
    "type": "medium_airport",
    "country": "Canada",
    "city": "Port Hawkesbury",
    "latitude": 45.6567001343,
    "longitude": -61.3680992126,
    "gps_code": "CYPD",
    "iata_code": "YPS",
    "connection": []
  },
  {
    "name": "Peace River Airport",
    "is_hub": false,
    "is_destination": false,
    "type": "medium_airport",
    "country": "Canada",
    "city": "Peace River",
    "latitude": 56.226898,
    "longitude": -117.446999,
    "gps_code": "CYPE",
    "iata_code": "YPE",
    "connection": []
  },
  {
    "name": "Southport Airport",
    "is_hub": false,
    "is_destination": false,
    "type": "medium_airport",
    "country": "Canada",
    "city": "Portage la Prairie",
    "latitude": 49.903099,
    "longitude": -98.273817,
    "gps_code": "CYPG",
    "iata_code": "YPG",
    "connection": []
  },
  {
    "name": "Inukjuak Airport",
    "is_hub": false,
    "is_destination": false,
    "type": "medium_airport",
    "country": "Canada",
    "city": "Inukjuak",
    "latitude": 58.471900939941406,
    "longitude": -78.07689666748047,
    "gps_code": "CYPH",
    "iata_code": "YPH",
    "connection": []
  },
  {
    "name": "Pickle Lake Airport",
    "is_hub": false,
    "is_destination": false,
    "type": "medium_airport",
    "country": "Canada",
    "city": "Pickle Lake",
    "latitude": 51.4463996887207,
    "longitude": -90.21420288085938,
    "gps_code": "CYPL",
    "iata_code": "YPL",
    "connection": []
  },
  {
    "name": "Pikangikum Airport",
    "is_hub": false,
    "is_destination": false,
    "type": "medium_airport",
    "country": "Canada",
    "city": "Pikangikum",
    "latitude": 51.819698333740234,
    "longitude": -93.97329711914062,
    "gps_code": "CYPM",
    "iata_code": "YPM",
    "connection": []
  },
  {
    "name": "Port Menier Airport",
    "is_hub": false,
    "is_destination": false,
    "type": "medium_airport",
    "country": "Canada",
    "city": "Port-Menier",
    "latitude": 49.83639907836914,
    "longitude": -64.2885971069336,
    "gps_code": "CYPN",
    "iata_code": "YPN",
    "connection": []
  },
  {
    "name": "Peawanuck Airport",
    "is_hub": false,
    "is_destination": false,
    "type": "medium_airport",
    "country": "Canada",
    "city": "Peawanuck",
    "latitude": 54.98809814453125,
    "longitude": -85.44329833984375,
    "gps_code": "CYPO",
    "iata_code": "YPO",
    "connection": []
  },
  {
    "name": "Peterborough Airport",
    "is_hub": false,
    "is_destination": false,
    "type": "medium_airport",
    "country": "Canada",
    "city": "Peterborough",
    "latitude": 44.22999954223633,
    "longitude": -78.36329650878906,
    "gps_code": "CYPQ",
    "iata_code": "YPQ",
    "connection": []
  },
  {
    "name": "Prince Rupert Airport",
    "is_hub": false,
    "is_destination": false,
    "type": "medium_airport",
    "country": "Canada",
    "city": "Prince Rupert",
    "latitude": 54.286098480199996,
    "longitude": -130.445007324,
    "gps_code": "CYPR",
    "iata_code": "YPR",
    "connection": []
  },
  {
    "name": "Powell River Airport",
    "is_hub": false,
    "is_destination": false,
    "type": "medium_airport",
    "country": "Canada",
    "city": "Powell River",
    "latitude": 49.83420181274414,
    "longitude": -124.5,
    "gps_code": "CYPW",
    "iata_code": "YPW",
    "connection": []
  },
  {
    "name": "Puvirnituq Airport",
    "is_hub": false,
    "is_destination": false,
    "type": "medium_airport",
    "country": "Canada",
    "city": "Puvirnituq",
    "latitude": 60.05059814453125,
    "longitude": -77.28690338134766,
    "gps_code": "CYPX",
    "iata_code": "YPX",
    "connection": []
  },
  {
    "name": "Fort Chipewyan Airport",
    "is_hub": false,
    "is_destination": false,
    "type": "medium_airport",
    "country": "Canada",
    "city": "Fort Chipewyan",
    "latitude": 58.7672004699707,
    "longitude": -111.11699676513672,
    "gps_code": "CYPY",
    "iata_code": "YPY",
    "connection": []
  },
  {
    "name": "Muskoka Airport",
    "is_hub": false,
    "is_destination": false,
    "type": "medium_airport",
    "country": "Canada",
    "city": "Muskoka",
    "latitude": 44.974700927734375,
    "longitude": -79.30329895019531,
    "gps_code": "CYQA",
    "iata_code": "YQA",
    "connection": []
  },
  {
    "name": "Quebec Jean Lesage International Airport",
    "is_hub": false,
    "is_destination": false,
    "type": "medium_airport",
    "country": "Canada",
    "city": "Quebec",
    "latitude": 46.7911,
    "longitude": -71.393303,
    "gps_code": "CYQB",
    "iata_code": "YQB",
    "connection": []
  },
  {
    "name": "The Pas Airport",
    "is_hub": false,
    "is_destination": false,
    "type": "medium_airport",
    "country": "Canada",
    "city": "The Pas",
    "latitude": 53.97140121459961,
    "longitude": -101.09100341796875,
    "gps_code": "CYQD",
    "iata_code": "YQD",
    "connection": []
  },
  {
    "name": "Red Deer Regional Airport",
    "is_hub": false,
    "is_destination": false,
    "type": "medium_airport",
    "country": "Canada",
    "city": "Red Deer",
    "latitude": 52.18220138549805,
    "longitude": -113.89399719238281,
    "gps_code": "CYQF",
    "iata_code": "YQF",
    "connection": []
  },
  {
    "name": "Windsor Airport",
    "is_hub": false,
    "is_destination": false,
    "type": "medium_airport",
    "country": "Canada",
    "city": "Windsor",
    "latitude": 42.27560043334961,
    "longitude": -82.95559692382812,
    "gps_code": "CYQG",
    "iata_code": "YQG",
    "connection": []
  },
  {
    "name": "Watson Lake Airport",
    "is_hub": false,
    "is_destination": false,
    "type": "medium_airport",
    "country": "Canada",
    "city": "Watson Lake",
    "latitude": 60.11640167236328,
    "longitude": -128.82200622558594,
    "gps_code": "CYQH",
    "iata_code": "YQH",
    "connection": []
  },
  {
    "name": "Yarmouth Airport",
    "is_hub": false,
    "is_destination": false,
    "type": "medium_airport",
    "country": "Canada",
    "city": "Yarmouth",
    "latitude": 43.826900482177734,
    "longitude": -66.08809661865234,
    "gps_code": "CYQI",
    "iata_code": "YQI",
    "connection": []
  },
  {
    "name": "Kenora Airport",
    "is_hub": false,
    "is_destination": false,
    "type": "medium_airport",
    "country": "Canada",
    "city": "Kenora",
    "latitude": 49.788299560546875,
    "longitude": -94.36309814453125,
    "gps_code": "CYQK",
    "iata_code": "YQK",
    "connection": []
  },
  {
    "name": "Lethbridge County Airport",
    "is_hub": false,
    "is_destination": false,
    "type": "medium_airport",
    "country": "Canada",
    "city": "Lethbridge",
    "latitude": 49.6302986145,
    "longitude": -112.800003052,
    "gps_code": "CYQL",
    "iata_code": "YQL",
    "connection": []
  },
  {
    "name": "Greater Moncton International Airport",
    "is_hub": false,
    "is_destination": false,
    "type": "medium_airport",
    "country": "Canada",
    "city": "Moncton",
    "latitude": 46.11220169067383,
    "longitude": -64.67859649658203,
    "gps_code": "CYQM",
    "iata_code": "YQM",
    "connection": []
  },
  {
    "name": "Nakina Airport",
    "is_hub": false,
    "is_destination": false,
    "type": "medium_airport",
    "country": "Canada",
    "city": "Nakina",
    "latitude": 50.18280029296875,
    "longitude": -86.69640350341797,
    "gps_code": "CYQN",
    "iata_code": "YQN",
    "connection": []
  },
  {
    "name": "Comox Airport",
    "is_hub": false,
    "is_destination": false,
    "type": "medium_airport",
    "country": "Canada",
    "city": "Comox",
    "latitude": 49.71080017089844,
    "longitude": -124.88700103759766,
    "gps_code": "CYQQ",
    "iata_code": "YQQ",
    "connection": []
  },
  {
    "name": "Regina International Airport",
    "is_hub": false,
    "is_destination": false,
    "type": "medium_airport",
    "country": "Canada",
    "city": "Regina",
    "latitude": 50.43190002441406,
    "longitude": -104.66600036621094,
    "gps_code": "CYQR",
    "iata_code": "YQR",
    "connection": []
  },
  {
    "name": "St Thomas Municipal Airport",
    "is_hub": false,
    "is_destination": false,
    "type": "medium_airport",
    "country": "Canada",
    "city": "St Thomas",
    "latitude": 42.77000045776367,
    "longitude": -81.11080169677734,
    "gps_code": "CYQS",
    "iata_code": "YQS",
    "connection": []
  },
  {
    "name": "Thunder Bay Airport",
    "is_hub": false,
    "is_destination": false,
    "type": "medium_airport",
    "country": "Canada",
    "city": "Thunder Bay",
    "latitude": 48.37189865112305,
    "longitude": -89.32389831542969,
    "gps_code": "CYQT",
    "iata_code": "YQT",
    "connection": []
  },
  {
    "name": "Grande Prairie Airport",
    "is_hub": false,
    "is_destination": false,
    "type": "medium_airport",
    "country": "Canada",
    "city": "Grande Prairie",
    "latitude": 55.1796989441,
    "longitude": -118.885002136,
    "gps_code": "CYQU",
    "iata_code": "YQU",
    "connection": []
  },
  {
    "name": "Yorkton Municipal Airport",
    "is_hub": false,
    "is_destination": false,
    "type": "medium_airport",
    "country": "Canada",
    "city": "Yorkton",
    "latitude": 51.26470184326172,
    "longitude": -102.46199798583984,
    "gps_code": "CYQV",
    "iata_code": "YQV",
    "connection": []
  },
  {
    "name": "North Battleford Airport",
    "is_hub": false,
    "is_destination": false,
    "type": "medium_airport",
    "country": "Canada",
    "city": "North Battleford",
    "latitude": 52.76919937133789,
    "longitude": -108.24400329589844,
    "gps_code": "CYQW",
    "iata_code": "YQW",
    "connection": []
  },
  {
    "name": "Gander International Airport",
    "is_hub": false,
    "is_destination": false,
    "type": "medium_airport",
    "country": "Canada",
    "city": "Gander",
    "latitude": 48.9369010925293,
    "longitude": -54.56809997558594,
    "gps_code": "CYQX",
    "iata_code": "YQX",
    "connection": []
  },
  {
    "name": "Sydney / J.A. Douglas McCurdy Airport",
    "is_hub": false,
    "is_destination": true,
    "type": "medium_airport",
    "country": "Canada",
    "city": "Sydney",
    "latitude": 46.1614,
    "longitude": -60.047798,
    "gps_code": "CYQY",
    "iata_code": "YQY",
    "connection": []
  },
  {
    "name": "Quesnel Airport",
    "is_hub": false,
    "is_destination": false,
    "type": "medium_airport",
    "country": "Canada",
    "city": "Quesnel",
    "latitude": 53.026100158691406,
    "longitude": -122.51000213623047,
    "gps_code": "CYQZ",
    "iata_code": "YQZ",
    "connection": []
  },
  {
    "name": "Rae Lakes Airport",
    "is_hub": false,
    "is_destination": false,
    "type": "medium_airport",
    "country": "Canada",
    "city": "Gam\u00e8t\u00ec",
    "latitude": 64.11609649658203,
    "longitude": -117.30999755859375,
    "gps_code": "CYRA",
    "iata_code": "YRA",
    "connection": []
  },
  {
    "name": "Resolute Bay Airport",
    "is_hub": false,
    "is_destination": false,
    "type": "medium_airport",
    "country": "Canada",
    "city": "Resolute Bay",
    "latitude": 74.7169036865,
    "longitude": -94.9693984985,
    "gps_code": "CYRB",
    "iata_code": "YRB",
    "connection": []
  },
  {
    "name": "Rivi\u00e8re-du-Loup Airport",
    "is_hub": false,
    "is_destination": false,
    "type": "medium_airport",
    "country": "Canada",
    "city": "Rivi\u00e8re-du-Loup",
    "latitude": 47.764400482177734,
    "longitude": -69.58470153808594,
    "gps_code": "CYRI",
    "iata_code": "YRI",
    "connection": []
  },
  {
    "name": "Roberval Airport",
    "is_hub": false,
    "is_destination": false,
    "type": "medium_airport",
    "country": "Canada",
    "city": "Roberval",
    "latitude": 48.52000045776367,
    "longitude": -72.2656021118164,
    "gps_code": "CYRJ",
    "iata_code": "YRJ",
    "connection": []
  },
  {
    "name": "Red Lake Airport",
    "is_hub": false,
    "is_destination": false,
    "type": "medium_airport",
    "country": "Canada",
    "city": "Red Lake",
    "latitude": 51.066898345947266,
    "longitude": -93.79309844970703,
    "gps_code": "CYRL",
    "iata_code": "YRL",
    "connection": []
  },
  {
    "name": "Ottawa / Rockcliffe Airport",
    "is_hub": false,
    "is_destination": true,
    "type": "medium_airport",
    "country": "Canada",
    "city": "Ottawa",
    "latitude": 45.4603004456,
    "longitude": -75.64610290530001,
    "gps_code": "CYRO",
    "iata_code": "YRO",
    "connection": []
  },
  {
    "name": "Trois-Rivi\u00e8res Airport",
    "is_hub": false,
    "is_destination": false,
    "type": "medium_airport",
    "country": "Canada",
    "city": "Trois-Rivi\u00e8res",
    "latitude": 46.35279846191406,
    "longitude": -72.67939758300781,
    "gps_code": "CYRQ",
    "iata_code": "YRQ",
    "connection": []
  },
  {
    "name": "Red Sucker Lake Airport",
    "is_hub": false,
    "is_destination": false,
    "type": "medium_airport",
    "country": "Canada",
    "city": "Red Sucker Lake",
    "latitude": 54.167198181152344,
    "longitude": -93.55719757080078,
    "gps_code": "CYRS",
    "iata_code": "YRS",
    "connection": []
  },
  {
    "name": "Rankin Inlet Airport",
    "is_hub": false,
    "is_destination": false,
    "type": "medium_airport",
    "country": "Canada",
    "city": "Rankin Inlet",
    "latitude": 62.8114013672,
    "longitude": -92.1157989502,
    "gps_code": "CYRT",
    "iata_code": "YRT",
    "connection": []
  },
  {
    "name": "Revelstoke Airport",
    "is_hub": false,
    "is_destination": false,
    "type": "medium_airport",
    "country": "Canada",
    "city": "Revelstoke",
    "latitude": 50.9667015076,
    "longitude": -118.182998657,
    "gps_code": "CYRV",
    "iata_code": "YRV",
    "connection": []
  },
  {
    "name": "Sudbury Airport",
    "is_hub": false,
    "is_destination": false,
    "type": "medium_airport",
    "country": "Canada",
    "city": "Sudbury",
    "latitude": 46.625,
    "longitude": -80.79889678955078,
    "gps_code": "CYSB",
    "iata_code": "YSB",
    "connection": []
  },
  {
    "name": "Sherbrooke Airport",
    "is_hub": false,
    "is_destination": false,
    "type": "medium_airport",
    "country": "Canada",
    "city": "Sherbrooke",
    "latitude": 45.4385986328125,
    "longitude": -71.69139862060547,
    "gps_code": "CYSC",
    "iata_code": "YSC",
    "connection": []
  },
  {
    "name": "Stony Rapids Airport",
    "is_hub": false,
    "is_destination": false,
    "type": "medium_airport",
    "country": "Canada",
    "city": "Stony Rapids",
    "latitude": 59.250301361083984,
    "longitude": -105.84100341796875,
    "gps_code": "CYSF",
    "iata_code": "YSF",
    "connection": []
  },
  {
    "name": "Smiths Falls-Montague (Russ Beach) Airport",
    "is_hub": false,
    "is_destination": false,
    "type": "medium_airport",
    "country": "Canada",
    "city": "Smiths Falls",
    "latitude": 44.94580078125,
    "longitude": -75.94059753417969,
    "gps_code": "CYSH",
    "iata_code": "YSH",
    "connection": []
  },
  {
    "name": "Saint John Airport",
    "is_hub": false,
    "is_destination": false,
    "type": "medium_airport",
    "country": "Canada",
    "city": "Saint John",
    "latitude": 45.31610107421875,
    "longitude": -65.89029693603516,
    "gps_code": "CYSJ",
    "iata_code": "YSJ",
    "connection": []
  },
  {
    "name": "Sanikiluaq Airport",
    "is_hub": false,
    "is_destination": false,
    "type": "medium_airport",
    "country": "Canada",
    "city": "Sanikiluaq",
    "latitude": 56.5377998352,
    "longitude": -79.2466964722,
    "gps_code": "CYSK",
    "iata_code": "YSK",
    "connection": []
  },
  {
    "name": "St Leonard Airport",
    "is_hub": false,
    "is_destination": false,
    "type": "medium_airport",
    "country": "Canada",
    "city": "St Leonard",
    "latitude": 47.157501220703125,
    "longitude": -67.83470153808594,
    "gps_code": "CYSL",
    "iata_code": "YSL",
    "connection": []
  },
  {
    "name": "Fort Smith Airport",
    "is_hub": false,
    "is_destination": false,
    "type": "medium_airport",
    "country": "Canada",
    "city": "Fort Smith",
    "latitude": 60.020301818847656,
    "longitude": -111.96199798583984,
    "gps_code": "CYSM",
    "iata_code": "YSM",
    "connection": []
  },
  {
    "name": "Niagara District Airport",
    "is_hub": false,
    "is_destination": false,
    "type": "medium_airport",
    "country": "Canada",
    "city": "St Catharines",
    "latitude": 43.19169998168945,
    "longitude": -79.17169952392578,
    "gps_code": "CYSN",
    "iata_code": "YCM",
    "connection": []
  },
  {
    "name": "Marathon Airport",
    "is_hub": false,
    "is_destination": false,
    "type": "medium_airport",
    "country": "Canada",
    "city": "Marathon",
    "latitude": 48.75529861450195,
    "longitude": -86.34439849853516,
    "gps_code": "CYSP",
    "iata_code": "YSP",
    "connection": []
  },
  {
    "name": "St. Theresa Point Airport",
    "is_hub": false,
    "is_destination": false,
    "type": "medium_airport",
    "country": "Canada",
    "city": "St. Theresa Point",
    "latitude": 53.84560012817383,
    "longitude": -94.85189819335938,
    "gps_code": "CYST",
    "iata_code": "YST",
    "connection": []
  },
  {
    "name": "Summerside Airport",
    "is_hub": false,
    "is_destination": false,
    "type": "medium_airport",
    "country": "Canada",
    "city": "Summerside",
    "latitude": 46.44060134887695,
    "longitude": -63.83359909057617,
    "gps_code": "CYSU",
    "iata_code": "YSU",
    "connection": []
  },
  {
    "name": "Sachs Harbour (David Nasogaluak Jr. Saaryuaq) Airport",
    "is_hub": false,
    "is_destination": false,
    "type": "medium_airport",
    "country": "Canada",
    "city": "Sachs Harbour",
    "latitude": 71.9938964844,
    "longitude": -125.242996216,
    "gps_code": "CYSY",
    "iata_code": "YSY",
    "connection": []
  },
  {
    "name": "Pembroke Airport",
    "is_hub": false,
    "is_destination": false,
    "type": "medium_airport",
    "country": "Canada",
    "city": "Pembroke",
    "latitude": 45.86439895629883,
    "longitude": -77.25170135498047,
    "gps_code": "CYTA",
    "iata_code": "YTA",
    "connection": []
  },
  {
    "name": "Cape Dorset Airport",
    "is_hub": false,
    "is_destination": false,
    "type": "medium_airport",
    "country": "Canada",
    "city": "Cape Dorset",
    "latitude": 64.2300033569,
    "longitude": -76.5267028809,
    "gps_code": "CYTE",
    "iata_code": "YTE",
    "connection": []
  },
  {
    "name": "Alma Airport",
    "is_hub": false,
    "is_destination": false,
    "type": "medium_airport",
    "country": "Canada",
    "city": "Alma",
    "latitude": 48.50889968869999,
    "longitude": -71.64189910889999,
    "gps_code": "CYTF",
    "iata_code": "YTF",
    "connection": []
  },
  {
    "name": "Thompson Airport",
    "is_hub": false,
    "is_destination": false,
    "type": "medium_airport",
    "country": "Canada",
    "city": "Thompson",
    "latitude": 55.80110168457031,
    "longitude": -97.86419677734375,
    "gps_code": "CYTH",
    "iata_code": "YTH",
    "connection": []
  },
  {
    "name": "Big Trout Lake Airport",
    "is_hub": false,
    "is_destination": false,
    "type": "medium_airport",
    "country": "Canada",
    "city": "Big Trout Lake",
    "latitude": 53.81779861450195,
    "longitude": -89.89689636230469,
    "gps_code": "CYTL",
    "iata_code": "YTL",
    "connection": []
  },
  {
    "name": "Tasiujaq Airport",
    "is_hub": false,
    "is_destination": false,
    "type": "medium_airport",
    "country": "Canada",
    "city": "Tasiujaq",
    "latitude": 58.66780090332031,
    "longitude": -69.95580291748047,
    "gps_code": "CYTQ",
    "iata_code": "YTQ",
    "connection": []
  },
  {
    "name": "CFB Trenton",
    "is_hub": false,
    "is_destination": false,
    "type": "medium_airport",
    "country": "Canada",
    "city": "Trenton",
    "latitude": 44.118900299072266,
    "longitude": -77.5280990600586,
    "gps_code": "CYTR",
    "iata_code": "YTR",
    "connection": []
  },
  {
    "name": "Timmins/Victor M. Power",
    "is_hub": false,
    "is_destination": false,
    "type": "medium_airport",
    "country": "Canada",
    "city": "Timmins",
    "latitude": 48.569698333699996,
    "longitude": -81.376701355,
    "gps_code": "CYTS",
    "iata_code": "YTS",
    "connection": []
  },
  {
    "name": "Billy Bishop Toronto City Centre Airport",
    "is_hub": false,
    "is_destination": true,
    "type": "medium_airport",
    "country": "Canada",
    "city": "Toronto",
    "latitude": 43.627499,
    "longitude": -79.396202,
    "gps_code": "CYTZ",
    "iata_code": "YTZ",
    "connection": []
  },
  {
    "name": "Tuktoyaktuk Airport",
    "is_hub": false,
    "is_destination": false,
    "type": "medium_airport",
    "country": "Canada",
    "city": "Tuktoyaktuk",
    "latitude": 69.43329620361328,
    "longitude": -133.0260009765625,
    "gps_code": "CYUB",
    "iata_code": "YUB",
    "connection": []
  },
  {
    "name": "Montreal / Pierre Elliott Trudeau International Airport",
    "is_hub": false,
    "is_destination": false,
    "type": "large_airport",
    "country": "Canada",
    "city": "Montr\u00e9al",
    "latitude": 45.4706001282,
    "longitude": -73.7407989502,
    "gps_code": "CYUL",
    "iata_code": "YUL",
    "connection": []
  },
  {
    "name": "Repulse Bay Airport",
    "is_hub": false,
    "is_destination": false,
    "type": "medium_airport",
    "country": "Canada",
    "city": "Repulse Bay",
    "latitude": 66.5214004517,
    "longitude": -86.22470092770001,
    "gps_code": "CYUT",
    "iata_code": "YUT",
    "connection": []
  },
  {
    "name": "Hall Beach Airport",
    "is_hub": false,
    "is_destination": false,
    "type": "medium_airport",
    "country": "Canada",
    "city": "Hall Beach",
    "latitude": 68.77610015869999,
    "longitude": -81.2425,
    "gps_code": "CYUX",
    "iata_code": "YUX",
    "connection": []
  },
  {
    "name": "Rouyn Noranda Airport",
    "is_hub": false,
    "is_destination": false,
    "type": "medium_airport",
    "country": "Canada",
    "city": "Rouyn-Noranda",
    "latitude": 48.20610046386719,
    "longitude": -78.83560180664062,
    "gps_code": "CYUY",
    "iata_code": "YUY",
    "connection": []
  },
  {
    "name": "Bonaventure Airport",
    "is_hub": false,
    "is_destination": false,
    "type": "medium_airport",
    "country": "Canada",
    "city": "Bonaventure",
    "latitude": 48.07109832763672,
    "longitude": -65.46029663085938,
    "gps_code": "CYVB",
    "iata_code": "YVB",
    "connection": []
  },
  {
    "name": "La Ronge Airport",
    "is_hub": false,
    "is_destination": false,
    "type": "medium_airport",
    "country": "Canada",
    "city": "La Ronge",
    "latitude": 55.151401519800004,
    "longitude": -105.262001038,
    "gps_code": "CYVC",
    "iata_code": "YVC",
    "connection": []
  },
  {
    "name": "Vernon Airport",
    "is_hub": false,
    "is_destination": false,
    "type": "medium_airport",
    "country": "Canada",
    "city": "Vernon",
    "latitude": 50.24810028076172,
    "longitude": -119.33100128173828,
    "gps_code": "CYVK",
    "iata_code": "YVE",
    "connection": []
  },
  {
    "name": "Qikiqtarjuaq Airport",
    "is_hub": false,
    "is_destination": false,
    "type": "medium_airport",
    "country": "Canada",
    "city": "Qikiqtarjuaq",
    "latitude": 67.5457992554,
    "longitude": -64.03140258789999,
    "gps_code": "CYVM",
    "iata_code": "YVM",
    "connection": []
  },
  {
    "name": "Val-d'Or Airport",
    "is_hub": false,
    "is_destination": false,
    "type": "medium_airport",
    "country": "Canada",
    "city": "Val-d'Or",
    "latitude": 48.0532989502,
    "longitude": -77.7827987671,
    "gps_code": "CYVO",
    "iata_code": "YVO",
    "connection": []
  },
  {
    "name": "Kuujjuaq Airport",
    "is_hub": false,
    "is_destination": false,
    "type": "medium_airport",
    "country": "Canada",
    "city": "Kuujjuaq",
    "latitude": 58.096099853515625,
    "longitude": -68.4269027709961,
    "gps_code": "CYVP",
    "iata_code": "YVP",
    "connection": []
  },
  {
    "name": "Norman Wells Airport",
    "is_hub": false,
    "is_destination": false,
    "type": "medium_airport",
    "country": "Canada",
    "city": "Norman Wells",
    "latitude": 65.28160095214844,
    "longitude": -126.7979965209961,
    "gps_code": "CYVQ",
    "iata_code": "YVQ",
    "connection": []
  },
  {
    "name": "Vancouver International Airport",
    "is_hub": false,
    "is_destination": true,
    "type": "large_airport",
    "country": "Canada",
    "city": "Vancouver",
    "latitude": 49.193901062,
    "longitude": -123.183998108,
    "gps_code": "CYVR",
    "iata_code": "YVR",
    "connection": []
  },
  {
    "name": "Wiarton Airport",
    "is_hub": false,
    "is_destination": false,
    "type": "medium_airport",
    "country": "Canada",
    "city": "Wiarton",
    "latitude": 44.7458,
    "longitude": -81.107201,
    "gps_code": "CYVV",
    "iata_code": "YVV",
    "connection": []
  },
  {
    "name": "Deer Lake Airport",
    "is_hub": false,
    "is_destination": false,
    "type": "medium_airport",
    "country": "Canada",
    "city": "Deer Lake",
    "latitude": 52.655799865722656,
    "longitude": -94.0614013671875,
    "gps_code": "CYVZ",
    "iata_code": "YVZ",
    "connection": []
  },
  {
    "name": "Petawawa Airport",
    "is_hub": false,
    "is_destination": false,
    "type": "medium_airport",
    "country": "Canada",
    "city": "Petawawa",
    "latitude": 45.95220184326172,
    "longitude": -77.31919860839844,
    "gps_code": "CYWA",
    "iata_code": "YWA",
    "connection": []
  },
  {
    "name": "Winnipeg / James Armstrong Richardson International Airport",
    "is_hub": false,
    "is_destination": false,
    "type": "large_airport",
    "country": "Canada",
    "city": "Winnipeg",
    "latitude": 49.909999847399995,
    "longitude": -97.2398986816,
    "gps_code": "CYWG",
    "iata_code": "YWG",
    "connection": []
  },
  {
    "name": "D\u00e9line Airport",
    "is_hub": false,
    "is_destination": false,
    "type": "medium_airport",
    "country": "Canada",
    "city": "D\u00e9line",
    "latitude": 65.21109771728516,
    "longitude": -123.43599700927734,
    "gps_code": "CYWJ",
    "iata_code": "YWJ",
    "connection": []
  },
  {
    "name": "Wabush Airport",
    "is_hub": false,
    "is_destination": false,
    "type": "medium_airport",
    "country": "Canada",
    "city": "Wabush",
    "latitude": 52.92190170288086,
    "longitude": -66.8644027709961,
    "gps_code": "CYWK",
    "iata_code": "YWK",
    "connection": []
  },
  {
    "name": "Williams Lake Airport",
    "is_hub": false,
    "is_destination": false,
    "type": "medium_airport",
    "country": "Canada",
    "city": "Williams Lake",
    "latitude": 52.1831016541,
    "longitude": -122.054000854,
    "gps_code": "CYWL",
    "iata_code": "YWL",
    "connection": []
  },
  {
    "name": "Webequie Airport",
    "is_hub": false,
    "is_destination": false,
    "type": "medium_airport",
    "country": "Canada",
    "city": "Webequie",
    "latitude": 52.9593933975,
    "longitude": -87.3748683929,
    "gps_code": "CYWP",
    "iata_code": "YWP",
    "connection": []
  },
  {
    "name": "Wrigley Airport",
    "is_hub": false,
    "is_destination": false,
    "type": "medium_airport",
    "country": "Canada",
    "city": "Wrigley",
    "latitude": 63.20940017700195,
    "longitude": -123.43699645996094,
    "gps_code": "CYWY",
    "iata_code": "YWY",
    "connection": []
  },
  {
    "name": "Cranbrook/Canadian Rockies International Airport",
    "is_hub": false,
    "is_destination": false,
    "type": "medium_airport",
    "country": "Canada",
    "city": "Cranbrook",
    "latitude": 49.610801696777,
    "longitude": -115.78199768066,
    "gps_code": "CYXC",
    "iata_code": "YXC",
    "connection": []
  },
  {
    "name": "Saskatoon John G. Diefenbaker International Airport",
    "is_hub": false,
    "is_destination": false,
    "type": "medium_airport",
    "country": "Canada",
    "city": "Saskatoon",
    "latitude": 52.170799255371094,
    "longitude": -106.69999694824219,
    "gps_code": "CYXE",
    "iata_code": "YXE",
    "connection": []
  },
  {
    "name": "Medicine Hat Airport",
    "is_hub": false,
    "is_destination": false,
    "type": "medium_airport",
    "country": "Canada",
    "city": "Medicine Hat",
    "latitude": 50.01890182495117,
    "longitude": -110.72100067138672,
    "gps_code": "CYXH",
    "iata_code": "YXH",
    "connection": []
  },
  {
    "name": "Fort St John Airport",
    "is_hub": false,
    "is_destination": false,
    "type": "medium_airport",
    "country": "Canada",
    "city": "Fort St.John",
    "latitude": 56.23809814453125,
    "longitude": -120.73999786376953,
    "gps_code": "CYXJ",
    "iata_code": "YXJ",
    "connection": []
  },
  {
    "name": "Rimouski Airport",
    "is_hub": false,
    "is_destination": false,
    "type": "medium_airport",
    "country": "Canada",
    "city": "Rimouski",
    "latitude": 48.47809982299805,
    "longitude": -68.49690246582031,
    "gps_code": "CYXK",
    "iata_code": "YXK",
    "connection": []
  },
  {
    "name": "Sioux Lookout Airport",
    "is_hub": false,
    "is_destination": false,
    "type": "medium_airport",
    "country": "Canada",
    "city": "Sioux Lookout",
    "latitude": 50.11389923095703,
    "longitude": -91.9052963256836,
    "gps_code": "CYXL",
    "iata_code": "YXL",
    "connection": []
  },
  {
    "name": "Whale Cove Airport",
    "is_hub": false,
    "is_destination": false,
    "type": "medium_airport",
    "country": "Canada",
    "city": "Whale Cove",
    "latitude": 62.24000167849999,
    "longitude": -92.59809875490001,
    "gps_code": "CYXN",
    "iata_code": "YXN",
    "connection": []
  },
  {
    "name": "Pangnirtung Airport",
    "is_hub": false,
    "is_destination": false,
    "type": "medium_airport",
    "country": "Canada",
    "city": "Pangnirtung",
    "latitude": 66.1449966431,
    "longitude": -65.71360015869999,
    "gps_code": "CYXP",
    "iata_code": "YXP",
    "connection": []
  },
  {
    "name": "Beaver Creek Airport",
    "is_hub": false,
    "is_destination": false,
    "type": "medium_airport",
    "country": "Canada",
    "city": "Beaver Creek",
    "latitude": 62.410301208496094,
    "longitude": -140.86700439453125,
    "gps_code": "CYXQ",
    "iata_code": "YXQ",
    "connection": []
  },
  {
    "name": "Earlton (Timiskaming Regional) Airport",
    "is_hub": false,
    "is_destination": false,
    "type": "medium_airport",
    "country": "Canada",
    "city": "Earlton",
    "latitude": 47.697400654599996,
    "longitude": -79.8473453522,
    "gps_code": "CYXR",
    "iata_code": "YXR",
    "connection": []
  },
  {
    "name": "Prince George Airport",
    "is_hub": false,
    "is_destination": false,
    "type": "medium_airport",
    "country": "Canada",
    "city": "Prince George",
    "latitude": 53.8894004822,
    "longitude": -122.679000854,
    "gps_code": "CYXS",
    "iata_code": "YXS",
    "connection": []
  },
  {
    "name": "Northwest Regional Airport Terrace-Kitimat",
    "is_hub": false,
    "is_destination": false,
    "type": "medium_airport",
    "country": "Canada",
    "city": "Terrace",
    "latitude": 54.468498,
    "longitude": -128.576009,
    "gps_code": "CYXT",
    "iata_code": "YXT",
    "connection": []
  },
  {
    "name": "London Airport",
    "is_hub": false,
    "is_destination": true,
    "type": "medium_airport",
    "country": "Canada",
    "city": "London",
    "latitude": 43.035599,
    "longitude": -81.1539,
    "gps_code": "CYXU",
    "iata_code": "YXU",
    "connection": []
  },
  {
    "name": "Abbotsford Airport",
    "is_hub": false,
    "is_destination": false,
    "type": "medium_airport",
    "country": "Canada",
    "city": "Abbotsford",
    "latitude": 49.025299072265625,
    "longitude": -122.36100006103516,
    "gps_code": "CYXX",
    "iata_code": "YXX",
    "connection": []
  },
  {
    "name": "Whitehorse / Erik Nielsen International Airport",
    "is_hub": false,
    "is_destination": false,
    "type": "medium_airport",
    "country": "Canada",
    "city": "Whitehorse",
    "latitude": 60.7095985413,
    "longitude": -135.067001343,
    "gps_code": "CYXY",
    "iata_code": "YXY",
    "connection": []
  },
  {
    "name": "Wawa Airport",
    "is_hub": false,
    "is_destination": false,
    "type": "medium_airport",
    "country": "Canada",
    "city": "Wawa",
    "latitude": 47.96670150756836,
    "longitude": -84.78669738769531,
    "gps_code": "CYXZ",
    "iata_code": "YXZ",
    "connection": []
  },