[
  {
    "id": "207515bb-11f9-4d0e-be7b-7725490bd95a",
    "name": "Aleknagik / New Airport",
    "is_hub": false,
    "is_destination": false,
    "type": "medium_airport",
    "country": "United States",
    "city": "Aleknagik",
    "latitude": 59.2826004028,
    "longitude": -158.617996216,
    "gps_code": "5A8",
    "iata_code": "WKK"
  },
  {
    "id": "43c89f00-d689-4c51-a6f4-bb9e03809c50",
    "name": "Honiara International Airport",
    "is_hub": false,
    "is_destination": false,
    "type": "medium_airport",
    "country": "Solomon Islands",
    "city": "Honiara",
    "latitude": -9.4280004501343,
    "longitude": 160.05499267578,
    "gps_code": "AGGH",
    "iata_code": "HIR"
  },
  {
    "id": "a1653073-1285-4818-9e26-46c6d8088a3c",
    "name": "Munda Airport",
    "is_hub": false,
    "is_destination": false,
    "type": "medium_airport",
    "country": "Solomon Islands",
    "city": "",
    "latitude": -8.327969551086426,
    "longitude": 157.26300048828125,
    "gps_code": "AGGM",
    "iata_code": "MUA"
  },
  {
    "id": "6d8bd47b-692f-4c96-960e-c3f714773ddf",
    "name": "Hongyuan Airport",
    "is_hub": false,
    "is_destination": false,
    "type": "medium_airport",
    "country": "China",
    "city": "Aba",
    "latitude": 32.53154,
    "longitude": 102.35224,
    "gps_code": "ZUHY",
    "iata_code": "AHJ"
  },
  {
    "id": "9e7d2658-fde4-4266-8efa-1132b1fec707",
    "name": "Nauru International Airport",
    "is_hub": false,
    "is_destination": false,
    "type": "medium_airport",
    "country": "Nauru",
    "city": "Yaren District",
    "latitude": -0.547458,
    "longitude": 166.919006,
    "gps_code": "ANYN",
    "iata_code": "INU"
  },
  {
    "id": "d4b87d2c-2000-4e4d-8e5d-19a46977c1d9",
    "name": "Alxa Left Banner Bayanhot Airport",
    "is_hub": false,
    "is_destination": false,
    "type": "medium_airport",
    "country": "China",
    "city": "Bayanhot",
    "latitude": 38.74831,
    "longitude": 105.58858,
    "gps_code": "ZBAL",
    "iata_code": "AXF"
  },
  {
    "id": "6a7f1fe2-cdf5-4bc7-b924-49f43416f749",
    "name": "Buka Airport",
    "is_hub": false,
    "is_destination": false,
    "type": "medium_airport",
    "country": "Papua New Guinea",
    "city": "Buka Island",
    "latitude": -5.4223198890686035,
    "longitude": 154.67300415039062,
    "gps_code": "AYBK",
    "iata_code": "BUA"
  },
  {
    "id": "4e4ac0bc-1a6d-491c-9587-e0a93be6c93b",
    "name": "Chimbu Airport",
    "is_hub": false,
    "is_destination": false,
    "type": "medium_airport",
    "country": "Papua New Guinea",
    "city": "Kundiawa",
    "latitude": -6.024290084838867,
    "longitude": 144.9709930419922,
    "gps_code": "AYCH",
    "iata_code": "CMU"
  },
  {
    "id": "f587da31-2f29-4490-824e-7c31f45b9821",
    "name": "Daru Airport",
    "is_hub": false,
    "is_destination": false,
    "type": "medium_airport",
    "country": "Papua New Guinea",
    "city": "Daru",
    "latitude": -9.08675956726,
    "longitude": 143.207992554,
    "gps_code": "AYDU",
    "iata_code": "DAU"
  },
  {
    "id": "fef5793e-c48e-4edd-9a00-3148ad479793",
    "name": "Goroka Airport",
    "is_hub": false,
    "is_destination": false,
    "type": "medium_airport",
    "country": "Papua New Guinea",
    "city": "Goronka",
    "latitude": -6.081689834590001,
    "longitude": 145.391998291,
    "gps_code": "AYGA",
    "iata_code": "GKA"
  },
  {
    "id": "19625969-a21f-41c4-b28a-30caa6616c32",
    "name": "Gurney Airport",
    "is_hub": false,
    "is_destination": false,
    "type": "medium_airport",
    "country": "Papua New Guinea",
    "city": "Gurney",
    "latitude": -10.3114995956,
    "longitude": 150.333999634,
    "gps_code": "AYGN",
    "iata_code": "GUR"
  },
  {
    "id": "fc4039ee-c302-4d81-ad81-019dd12f87e7",
    "name": "Girua Airport",
    "is_hub": false,
    "is_destination": false,
    "type": "medium_airport",
    "country": "Papua New Guinea",
    "city": "Popondetta",
    "latitude": -8.80453968048,
    "longitude": 148.309005737,
    "gps_code": "AYGR",
    "iata_code": "PNP"
  },
  {
    "id": "2816c077-f8b6-41bc-83c3-a2a6a5be6f39",
    "name": "Kimbe Airport",
    "is_hub": false,
    "is_destination": false,
    "type": "medium_airport",
    "country": "Papua New Guinea",
    "city": "Hoskins",
    "latitude": -5.462170124053955,
    "longitude": 150.40499877929688,
    "gps_code": "AYHK",
    "iata_code": "HKN"
  },
  {
    "id": "39ff0ae5-5c32-4e13-8e72-3f38580fcb64",
    "name": "Kerema Airport",
    "is_hub": false,
    "is_destination": false,
    "type": "medium_airport",
    "country": "Papua New Guinea",
    "city": "Kerema",
    "latitude": -7.96361017227,
    "longitude": 145.770996094,
    "gps_code": "AYKM",
    "iata_code": "KMA"
  },
  {
    "id": "8c045a61-03c6-4722-8085-68139485cefd",
    "name": "Kavieng Airport",
    "is_hub": false,
    "is_destination": false,
    "type": "medium_airport",
    "country": "Papua New Guinea",
    "city": "Kavieng",
    "latitude": -2.57940006256,
    "longitude": 150.807998657,
    "gps_code": "AYKV",
    "iata_code": "KVG"
  },
  {
    "id": "6278d111-d878-43e7-a271-409fa0a57f80",
    "name": "Madang Airport",
    "is_hub": false,
    "is_destination": false,
    "type": "medium_airport",
    "country": "Papua New Guinea",
    "city": "Madang",
    "latitude": -5.20707988739,
    "longitude": 145.789001465,
    "gps_code": "AYMD",
    "iata_code": "MAG"
  },
  {
    "id": "c00b6747-b6b1-42b2-803c-add9747a7ccd",
    "name": "Mount Hagen Kagamuga Airport",
    "is_hub": false,
    "is_destination": false,
    "type": "medium_airport",
    "country": "Papua New Guinea",
    "city": "Mount Hagen",
    "latitude": -5.826789855957031,
    "longitude": 144.29600524902344,
    "gps_code": "AYMH",
    "iata_code": "HGU"
  },
  {
    "id": "ff5241b1-b600-4631-8670-53aae2a85485",
    "name": "Mendi Airport",
    "is_hub": false,
    "is_destination": false,
    "type": "medium_airport",
    "country": "Papua New Guinea",
    "city": "Mendi",
    "latitude": -6.14774,
    "longitude": 143.656998,
    "gps_code": "AYMN",
    "iata_code": "MDU"
  },
  {
    "id": "1ea5c3b9-6cd3-4f37-91ad-492e3da61687",
    "name": "Momote Airport",
    "is_hub": false,
    "is_destination": false,
    "type": "medium_airport",
    "country": "Papua New Guinea",
    "city": "Manus Island",
    "latitude": -2.06189,
    "longitude": 147.423996,
    "gps_code": "AYMO",
    "iata_code": "MAS"
  },
  {
    "id": "8f878121-ab02-4e78-9f06-c5544f1965e1",
    "name": "Nadzab Airport",
    "is_hub": false,
    "is_destination": false,
    "type": "medium_airport",
    "country": "Papua New Guinea",
    "city": "Lae",
    "latitude": -6.569803,
    "longitude": 146.725977,
    "gps_code": "AYNZ",
    "iata_code": "LAE"
  },
  {
    "id": "d023422d-1ac6-4b26-bb26-279502502d70",
    "name": "Port Moresby Jacksons International Airport",
    "is_hub": false,
    "is_destination": false,
    "type": "large_airport",
    "country": "Papua New Guinea",
    "city": "Port Moresby",
    "latitude": -9.443380355834961,
    "longitude": 147.22000122070312,
    "gps_code": "AYPY",
    "iata_code": "POM"
  },
  {
    "id": "38038cdd-7c75-4675-936d-6522da7047cc",
    "name": "Tokua Airport",
    "is_hub": false,
    "is_destination": false,
    "type": "medium_airport",
    "country": "Papua New Guinea",
    "city": "Tokua",
    "latitude": -4.34045982361,
    "longitude": 152.380004883,
    "gps_code": "AYTK",
    "iata_code": "RAB"
  },
  {
    "id": "4a1c2a3f-ccfd-4cd8-8557-e625e21cafb4",
    "name": "Vanimo Airport",
    "is_hub": false,
    "is_destination": false,
    "type": "medium_airport",
    "country": "Papua New Guinea",
    "city": "Vanimo",
    "latitude": -2.6926,
    "longitude": 141.3028,
    "gps_code": "AYVN",
    "iata_code": "VAI"
  },
  {
    "id": "e69fd4d3-2de7-455a-b7d2-4cc49772d057",
    "name": "Wapenamanda Airport",
    "is_hub": false,
    "is_destination": false,
    "type": "medium_airport",
    "country": "Papua New Guinea",
    "city": "",
    "latitude": -5.6433000564575195,
    "longitude": 143.89500427246094,
    "gps_code": "AYWD",
    "iata_code": "WBM"
  },
  {
    "id": "8d25fa16-7fb6-4f4f-acac-9a5e6ae9ff19",
    "name": "Wewak International Airport",
    "is_hub": false,
    "is_destination": false,
    "type": "medium_airport",
    "country": "Papua New Guinea",
    "city": "Wewak",
    "latitude": -3.58383011818,
    "longitude": 143.669006348,
    "gps_code": "AYWK",
    "iata_code": "WWK"
  },
  {
    "id": "c83682f4-ee37-4669-950f-f214000614ee",
    "name": "Zabrat Airport",
    "is_hub": false,
    "is_destination": true,
    "type": "medium_airport",
    "country": "Azerbaijan",
    "city": "Baku",
    "latitude": 40.4955422161,
    "longitude": 49.9768066406,
    "gps_code": "UBTT",
    "iata_code": "ZXT"
  },
  {
    "id": "78ea25cf-eec6-4a3d-a67e-61d872ef59c9",
    "name": "Bezmer Air Base",
    "is_hub": false,
    "is_destination": false,
    "type": "medium_airport",
    "country": "Bulgaria",
    "city": "Yambol",
    "latitude": 42.4548988342,
    "longitude": 26.3521995544,
    "gps_code": "LBIA",
    "iata_code": "JAM"
  },
  {
    "id": "75ffbcc3-855d-4745-8b8a-bd2ed686a1f2",
    "name": "Aasiaat Airport",
    "is_hub": false,
    "is_destination": false,
    "type": "medium_airport",
    "country": "Greenland",
    "city": "Aasiaat",
    "latitude": 68.7218017578,
    "longitude": -52.7846984863,
    "gps_code": "BGAA",
    "iata_code": "JEG"
  },
  {
    "id": "9f30baed-2996-4859-a5c1-6811f5828d24",
    "name": "Narsarsuaq Airport",
    "is_hub": false,
    "is_destination": false,
    "type": "medium_airport",
    "country": "Greenland",
    "city": "Narsarsuaq",
    "latitude": 61.1604995728,
    "longitude": -45.4259986877,
    "gps_code": "BGBW",
    "iata_code": "UAK"
  },
  {
    "id": "caa16863-49b9-4825-8659-575cf9536991",
    "name": "Godthaab / Nuuk Airport",
    "is_hub": false,
    "is_destination": false,
    "type": "medium_airport",
    "country": "Greenland",
    "city": "Nuuk",
    "latitude": 64.19090271,
    "longitude": -51.6781005859,
    "gps_code": "BGGH",
    "iata_code": "GOH"
  },
  {
    "id": "8f18f454-5f1b-4967-83b2-bfc268ba4738",
    "name": "Kangerlussuaq Airport",
    "is_hub": false,
    "is_destination": false,
    "type": "medium_airport",
    "country": "Greenland",
    "city": "Kangerlussuaq",
    "latitude": 67.0122218992,
    "longitude": -50.7116031647,
    "gps_code": "BGSF",
    "iata_code": "SFJ"
  },
  {
    "id": "4c8aa627-ce82-4c24-ab5c-13528250f7a9",
    "name": "Thule Air Base",
    "is_hub": false,
    "is_destination": false,
    "type": "medium_airport",
    "country": "Greenland",
    "city": "Thule",
    "latitude": 76.5311965942,
    "longitude": -68.7032012939,
    "gps_code": "BGTL",
    "iata_code": "THU"
  },
  {
    "id": "064b6d58-7155-41be-805d-f302b8d42793",
    "name": "Akureyri Airport",
    "is_hub": false,
    "is_destination": false,
    "type": "medium_airport",
    "country": "Iceland",
    "city": "Akureyri",
    "latitude": 65.66000366210938,
    "longitude": -18.07270050048828,
    "gps_code": "BIAR",
    "iata_code": "AEY"
  },
  {
    "id": "1f9c02ea-ed37-4683-9051-937d853d74fa",
    "name": "Egilssta\u00f0ir Airport",
    "is_hub": false,
    "is_destination": false,
    "type": "medium_airport",
    "country": "Iceland",
    "city": "Egilssta\u00f0ir",
    "latitude": 65.2833023071289,
    "longitude": -14.401399612426758,
    "gps_code": "BIEG",
    "iata_code": "EGS"
  },
  {
    "id": "1f9a2aa3-9631-4f9c-af32-9aa9d9a867c0",
    "name": "Hornafj\u00f6r\u00f0ur Airport",
    "is_hub": false,
    "is_destination": false,
    "type": "medium_airport",
    "country": "Iceland",
    "city": "H\u00f6fn",
    "latitude": 64.295601,
    "longitude": -15.2272,
    "gps_code": "BIHN",
    "iata_code": "HFN"
  },
  {
    "id": "de381b52-14a9-46e9-90d4-766da37f0e9c",
    "name": "H\u00fasav\u00edk Airport",
    "is_hub": false,
    "is_destination": false,
    "type": "medium_airport",
    "country": "Iceland",
    "city": "H\u00fasav\u00edk",
    "latitude": 65.952301,
    "longitude": -17.426001,
    "gps_code": "BIHU",
    "iata_code": "HZK"
  },
  {
    "id": "088dc763-ea89-452b-9db9-a4131badbc50",
    "name": "\u00cdsafj\u00f6r\u00f0ur Airport",
    "is_hub": false,
    "is_destination": false,
    "type": "medium_airport",
    "country": "Iceland",
    "city": "\u00cdsafj\u00f6r\u00f0ur",
    "latitude": 66.05809783935547,
    "longitude": -23.135299682617188,
    "gps_code": "BIIS",
    "iata_code": "IFJ"
  },
  {
    "id": "67c04bae-22b1-4e88-92d9-63424c94bc9d",
    "name": "Keflavik International Airport",
    "is_hub": false,
    "is_destination": false,
    "type": "large_airport",
    "country": "Iceland",
    "city": "Reykjav\u00edk",
    "latitude": 63.985000610352,
    "longitude": -22.605600357056,
    "gps_code": "BIKF",
    "iata_code": "KEF"
  },
  {
    "id": "fe63a033-8acf-42dd-9c9e-1d14f1a6c941",
    "name": "Reykjavik Airport",
    "is_hub": false,
    "is_destination": false,
    "type": "medium_airport",
    "country": "Iceland",
    "city": "Reykjavik",
    "latitude": 64.1299972534,
    "longitude": -21.9405994415,
    "gps_code": "BIRK",
    "iata_code": "RKV"
  },
  {
    "id": "d9bcde55-e663-44a2-9061-80d7380c25a7",
    "name": "Siglufj\u00f6r\u00f0ur Airport",
    "is_hub": false,
    "is_destination": false,
    "type": "medium_airport",
    "country": "Iceland",
    "city": "Siglufj\u00f6r\u00f0ur",
    "latitude": 66.133301,
    "longitude": -18.9167,
    "gps_code": "BISI",
    "iata_code": "SIJ"
  },
  {
    "id": "60a72a13-ad79-4dc6-a0bc-7733833df970",
    "name": "Vestmannaeyjar Airport",
    "is_hub": false,
    "is_destination": false,
    "type": "medium_airport",
    "country": "Iceland",
    "city": "Vestmannaeyjar",
    "latitude": 63.42430114746094,
    "longitude": -20.278900146484375,
    "gps_code": "BIVM",
    "iata_code": "VEY"
  },
  {
    "id": "e2cb2250-91f4-4a45-92ec-637120621c58",
    "name": "Pri\u0161tina International Airport",
    "is_hub": false,
    "is_destination": false,
    "type": "large_airport",
    "country": "Kosovo",
    "city": "Prishtina",
    "latitude": 42.5728,
    "longitude": 21.035801,
    "gps_code": "BKPR",
    "iata_code": "PRN"
  },
  {
    "id": "c1beeb83-4565-418d-a9fa-8aab70f6517b",
    "name": "San Pedro Airport",
    "is_hub": false,
    "is_destination": false,
    "type": "medium_airport",
    "country": "Belize",
    "city": "San Pedro",
    "latitude": 17.9139,
    "longitude": -87.9711,
    "gps_code": "MZSP",
    "iata_code": "SPR"
  },
  {
    "id": "e0467e1f-ccfa-420e-ba6a-1c54e8196d44",
    "name": "Yinchuan Hedong International Airport",
    "is_hub": false,
    "is_destination": false,
    "type": "medium_airport",
    "country": "China",
    "city": "Yinchuan",
    "latitude": 38.322758,
    "longitude": 106.393214,
    "gps_code": "ZLIC",
    "iata_code": "INC"
  },
  {
    "id": "030b756b-b377-4d58-a0fd-d65055c1beb9",
    "name": "Yuanmou Air Base",
    "is_hub": false,
    "is_destination": false,
    "type": "medium_airport",
    "country": "China",
    "city": "Yuanmou",
    "latitude": 25.737499237061,
    "longitude": 101.88200378418,
    "gps_code": "ZPYM",
    "iata_code": "YUA"
  },
  {
    "id": "da672e3d-cedd-41c0-88bc-1a793a151199",
    "name": "Zhangjiakou Ningyuan Airport",
    "is_hub": false,
    "is_destination": false,
    "type": "medium_airport",
    "country": "China",
    "city": "Zhangjiakou",
    "latitude": 40.7386016846,
    "longitude": 114.930000305,
    "gps_code": "ZBZJ",
    "iata_code": "ZQZ"
  },
  {
    "id": "cbf73a44-7060-499b-a677-0bf94d22a8e9",
    "name": "Baoshan Yunduan Airport",
    "is_hub": false,
    "is_destination": false,
    "type": "medium_airport",
    "country": "China",
    "city": "",
    "latitude": 25.053301,
    "longitude": 99.168297,
    "gps_code": "ZPBS",
    "iata_code": "BSD"
  },
  {
    "id": "0bbaa721-b3e4-4f01-808c-219593d96c1f",
    "name": "Lintsang Airfield",
    "is_hub": false,
    "is_destination": false,
    "type": "medium_airport",
    "country": "China",
    "city": "Lincang",
    "latitude": 23.738100051900002,
    "longitude": 100.025001526,
    "gps_code": "ZPLC",
    "iata_code": "LNJ"
  },
  {
    "id": "6af8eed9-be66-434d-a31a-a4ce314bb539",
    "name": "Shigatse Air Base",
    "is_hub": false,
    "is_destination": false,
    "type": "medium_airport",
    "country": "China",
    "city": "Xigaz\u00ea",
    "latitude": 29.3519,
    "longitude": 89.311401,
    "gps_code": "ZURK",
    "iata_code": "RKZ"
  },
  {
    "id": "42ede820-c8c4-4d8a-8826-6345036dfbad",
    "name": "Bao'anying Airport",
    "is_hub": false,
    "is_destination": false,
    "type": "medium_airport",
    "country": "China",
    "city": "Panzhihua",
    "latitude": 26.54,
    "longitude": 101.79852,
    "gps_code": "ZUZH",
    "iata_code": "PZI"
  },
  {
    "id": "285a7834-ce3c-4b02-a850-e537fbbd3e33",
    "name": "Foshan Shadi Airport",
    "is_hub": false,
    "is_destination": false,
    "type": "medium_airport",
    "country": "China",
    "city": "Foshan",
    "latitude": 23.083299636799996,
    "longitude": 113.069999695,
    "gps_code": "ZGFS",
    "iata_code": "FUO"
  },
  {
    "id": "e345316a-379a-49db-a1a6-2713d7b1e01d",
    "name": "Huizhou Airport",
    "is_hub": false,
    "is_destination": false,
    "type": "medium_airport",
    "country": "China",
    "city": "Huizhou",
    "latitude": 23.0499992371,
    "longitude": 114.599998474,
    "gps_code": "ZGHZ",
    "iata_code": "HUZ"
  },
  {
    "id": "7205cc88-b04e-4cec-86c4-2630678ab469",
    "name": "Jinggangshan Airport",
    "is_hub": false,
    "is_destination": false,
    "type": "medium_airport",
    "country": "China",
    "city": "Ji'an",
    "latitude": 26.856899261499997,
    "longitude": 114.736999512,
    "gps_code": "ZSJA",
    "iata_code": "JGS"
  },
  {
    "id": "87ae8399-e2e9-4a32-b279-ad3df1b64050",
    "name": "Baise Youjiang Airport",
    "is_hub": false,
    "is_destination": false,
    "type": "medium_airport",
    "country": "China",
    "city": "Baise",
    "latitude": 23.7206001282,
    "longitude": 106.959999084,
    "gps_code": "ZGBS",
    "iata_code": "AEB"
  },
  {
    "id": "e1e90165-f56c-456e-be37-f92174af2ef7",
    "name": "Dongying Shengli Airport",
    "is_hub": false,
    "is_destination": false,
    "type": "medium_airport",
    "country": "China",
    "city": "Dongying",
    "latitude": 37.5085983276,
    "longitude": 118.788002014,
    "gps_code": "ZSDY",
    "iata_code": "DOY"
  },
  {
    "id": "b19b0ea4-d4cc-4fcf-b7c1-23881255432f",
    "name": "Xingcheng Air Base",
    "is_hub": false,
    "is_destination": false,
    "type": "medium_airport",
    "country": "China",
    "city": "",
    "latitude": 40.580299377399996,
    "longitude": 120.697998047,
    "gps_code": "ZYXC",
    "iata_code": "XEN"
  },
  {
    "id": "7e2691d1-7fd3-4613-aed0-08c97b839214",
    "name": "Altay Air Base",
    "is_hub": false,
    "is_destination": false,
    "type": "medium_airport",
    "country": "China",
    "city": "Altay",
    "latitude": 47.7498855591,
    "longitude": 88.08580780030002,
    "gps_code": "ZWAT",
    "iata_code": "AAT"
  },
  {
    "id": "c3ac9419-af37-498e-9b6b-b63de19b6e24",
    "name": "Tianshui Maijishan Airport",
    "is_hub": false,
    "is_destination": false,
    "type": "medium_airport",
    "country": "China",
    "city": "Tianshui",
    "latitude": 34.5593986511,
    "longitude": 105.86000061,
    "gps_code": "ZLTS",
    "iata_code": "THQ"
  },
  {
    "id": "7202edc6-9144-4481-b8d5-16b83e32c769",
    "name": "Zhangye Ganzhou Airport",
    "is_hub": false,
    "is_destination": false,
    "type": "medium_airport",
    "country": "China",
    "city": "Zhangye",
    "latitude": 38.8018989563,
    "longitude": 100.675003052,
    "gps_code": "ZLZY",
    "iata_code": "YZY"
  },
  {
    "id": "bba7e9d9-d83e-4814-a19d-703043826ad3",
    "name": "Dandong Airport",
    "is_hub": false,
    "is_destination": false,
    "type": "medium_airport",
    "country": "China",
    "city": "Dandong",
    "latitude": 40.0247,
    "longitude": 124.286003,
    "gps_code": "ZYDD",
    "iata_code": "DDG"
  },
  {
    "id": "29d60284-95b7-44da-b108-007190a6f39e",
    "name": "Lefkoniko Airport",
    "is_hub": false,
    "is_destination": false,
    "type": "medium_airport",
    "country": "Cyprus",
    "city": "Ge\u00e7itkale",
    "latitude": 35.235947,
    "longitude": 33.724358,
    "gps_code": "LCGK",
    "iata_code": "GEC"
  },
  {
    "id": "7c027cea-7e99-472a-9b8b-d357d7db1a50",
    "name": "Cat Lake Airport",
    "is_hub": false,
    "is_destination": false,
    "type": "medium_airport",
    "country": "Canada",
    "city": "Cat Lake",
    "latitude": 51.72719955444336,
    "longitude": -91.82440185546875,
    "gps_code": "CYAC",
    "iata_code": "YAC"
  },
  {
    "id": "76c4289b-9c3e-47c2-a09b-08b00ed270cf",
    "name": "Fort Frances Municipal Airport",
    "is_hub": false,
    "is_destination": false,
    "type": "medium_airport",
    "country": "Canada",
    "city": "Fort Frances",
    "latitude": 48.65420150756836,
    "longitude": -93.439697265625,
    "gps_code": "CYAG",
    "iata_code": "YAG"
  },
  {
    "id": "a1ea1b0c-fd16-48f7-b564-eb466cfccd71",
    "name": "La Grande-4 Airport",
    "is_hub": false,
    "is_destination": false,
    "type": "medium_airport",
    "country": "Canada",
    "city": "La Grande-4",
    "latitude": 53.754699707,
    "longitude": -73.6753005981,
    "gps_code": "CYAH",
    "iata_code": "YAH"
  },
  {
    "id": "34848d89-58c3-4307-b8cc-fc62e0686fe4",
    "name": "Alert Bay Airport",
    "is_hub": false,
    "is_destination": false,
    "type": "medium_airport",
    "country": "Canada",
    "city": "Alert Bay",
    "latitude": 50.58219909667969,
    "longitude": -126.91600036621094,
    "gps_code": "CYAL",
    "iata_code": "YAL"
  },
  {
    "id": "b1cb21fb-d59c-4653-b4ef-2469efe82f94",
    "name": "Sault Ste Marie Airport",
    "is_hub": false,
    "is_destination": false,
    "type": "medium_airport",
    "country": "Canada",
    "city": "Sault Ste Marie",
    "latitude": 46.48500061035156,
    "longitude": -84.5093994140625,
    "gps_code": "CYAM",
    "iata_code": "YAM"
  },
  {
    "id": "35f12cba-f270-4470-acb1-12a3b7a25e4c",
    "name": "Kasabonika Airport",
    "is_hub": false,
    "is_destination": false,
    "type": "medium_airport",
    "country": "Canada",
    "city": "Kasabonika",
    "latitude": 53.52470016479492,
    "longitude": -88.6427993774414,
    "gps_code": "CYAQ",
    "iata_code": "XKS"
  },
  {
    "id": "a39cf28f-dcba-4321-a324-7552574b2407",
    "name": "Kangirsuk Airport",
    "is_hub": false,
    "is_destination": false,
    "type": "medium_airport",
    "country": "Canada",
    "city": "Kangirsuk",
    "latitude": 60.027198791503906,
    "longitude": -69.99919891357422,
    "gps_code": "CYAS",
    "iata_code": "YKG"
  },
  {
    "id": "e4dc1abe-acc7-4bdd-b4b9-4e136824c431",
    "name": "Attawapiskat Airport",
    "is_hub": false,
    "is_destination": false,
    "type": "medium_airport",
    "country": "Canada",
    "city": "Attawapiskat",
    "latitude": 52.9275016784668,
    "longitude": -82.43190002441406,
    "gps_code": "CYAT",
    "iata_code": "YAT"
  },
  {
    "id": "4ebb1d8c-806d-4407-922e-a08d1c88d10f",
    "name": "St. Anthony Airport",
    "is_hub": false,
    "is_destination": false,
    "type": "medium_airport",
    "country": "Canada",
    "city": "St. Anthony",
    "latitude": 51.3918991089,
    "longitude": -56.083099365200006,
    "gps_code": "CYAY",
    "iata_code": "YAY"
  },
  {
    "id": "5322c26d-fd50-4d5b-b8a9-36bbf82a410c",
    "name": "Tofino / Long Beach Airport",
    "is_hub": false,
    "is_destination": false,
    "type": "medium_airport",
    "country": "Canada",
    "city": "Tofino",
    "latitude": 49.079833,
    "longitude": -125.775583,
    "gps_code": "CYAZ",
    "iata_code": "YAZ"
  },
  {
    "id": "5d4694c0-779a-4467-8d6f-6f2ab0d03d11",
    "name": "Kugaaruk Airport",
    "is_hub": false,
    "is_destination": false,
    "type": "medium_airport",
    "country": "Canada",
    "city": "Kugaaruk",
    "latitude": 68.534401,
    "longitude": -89.808098,
    "gps_code": "CYBB",
    "iata_code": "YBB"
  },
  {
    "id": "b9da5f8e-9046-4d69-8807-4095294a5717",
    "name": "Baie Comeau Airport",
    "is_hub": false,
    "is_destination": false,
    "type": "medium_airport",
    "country": "Canada",
    "city": "Baie-Comeau",
    "latitude": 49.13249969482422,
    "longitude": -68.20439910888672,
    "gps_code": "CYBC",
    "iata_code": "YBC"
  },
  {
    "id": "8cb1eaed-a398-488e-bbe9-73ffd29b3559",
    "name": "Bella Coola Airport",
    "is_hub": false,
    "is_destination": false,
    "type": "medium_airport",
    "country": "Canada",
    "city": "Bella Coola",
    "latitude": 52.387501,
    "longitude": -126.596001,
    "gps_code": "CYBD",
    "iata_code": "QBC"
  },
  {
    "id": "dc646ac2-3d07-4eab-83cf-2df36bea81ba",
    "name": "Uranium City Airport",
    "is_hub": false,
    "is_destination": false,
    "type": "medium_airport",
    "country": "Canada",
    "city": "Uranium City",
    "latitude": 59.5614013671875,
    "longitude": -108.48100280761719,
    "gps_code": "CYBE",
    "iata_code": "YBE"
  },
  {
    "id": "2050d087-ca9a-48f3-9040-a6025b34a173",
    "name": "Bonnyville Airport",
    "is_hub": false,
    "is_destination": false,
    "type": "medium_airport",
    "country": "Canada",
    "city": "Bonnyville",
    "latitude": 54.304199,
    "longitude": -110.744003,
    "gps_code": "CYBF",
    "iata_code": "YBY"
  },
  {
    "id": "d71b9089-df9b-4b74-8d39-9a1d25851558",
    "name": "CFB Bagotville",
    "is_hub": false,
    "is_destination": false,
    "type": "medium_airport",
    "country": "Canada",
    "city": "Bagotville",
    "latitude": 48.33060073852539,
    "longitude": -70.99639892578125,
    "gps_code": "CYBG",
    "iata_code": "YBG"
  },
  {
    "id": "e239c4b7-8c0b-4c55-9fa4-d7bc7ed13f28",
    "name": "Baker Lake Airport",
    "is_hub": false,
    "is_destination": false,
    "type": "medium_airport",
    "country": "Canada",
    "city": "Baker Lake",
    "latitude": 64.29889678960001,
    "longitude": -96.077796936,
    "gps_code": "CYBK",
    "iata_code": "YBK"
  },
  {
    "id": "303d0a02-7bce-41e8-995b-7df926a361f3",
    "name": "Campbell River Airport",
    "is_hub": false,
    "is_destination": false,
    "type": "medium_airport",
    "country": "Canada",
    "city": "Campbell River",
    "latitude": 49.950801849365234,
    "longitude": -125.27100372314453,
    "gps_code": "CYBL",
    "iata_code": "YBL"
  },
  {
    "id": "098abb1e-a1bf-4a7b-94bd-ee2e5b15fd9b",
    "name": "Tadoule Lake Airport",
    "is_hub": false,
    "is_destination": false,
    "type": "medium_airport",
    "country": "Canada",
    "city": "Tadoule Lake",
    "latitude": 58.7061,
    "longitude": -98.512199,
    "gps_code": "CYBQ",
    "iata_code": "XTL"
  },
  {
    "id": "a1db4d7b-2d06-46dd-9d22-4a958fc11872",
    "name": "Brandon Municipal Airport",
    "is_hub": false,
    "is_destination": false,
    "type": "medium_airport",
    "country": "Canada",
    "city": "Brandon",
    "latitude": 49.91,
    "longitude": -99.951897,
    "gps_code": "CYBR",
    "iata_code": "YBR"
  },
  {
    "id": "ff0a90b9-6ca7-400f-953d-ea2bdbb297db",
    "name": "Brochet Airport",
    "is_hub": false,
    "is_destination": false,
    "type": "medium_airport",
    "country": "Canada",
    "city": "Brochet",
    "latitude": 57.8894,
    "longitude": -101.679001,
    "gps_code": "CYBT",
    "iata_code": "YBT"
  },
  {
    "id": "2146216d-0776-41e4-bd63-72444e3bc3d9",
    "name": "Berens River Airport",
    "is_hub": false,
    "is_destination": false,
    "type": "medium_airport",
    "country": "Canada",
    "city": "Berens River",
    "latitude": 52.358898,
    "longitude": -97.018303,
    "gps_code": "CYBV",
    "iata_code": "YBV"
  },
  {
    "id": "aeb694a9-9fa0-4b3c-93ef-6587fecd961e",
    "name": "Lourdes de Blanc Sablon Airport",
    "is_hub": false,
    "is_destination": false,
    "type": "medium_airport",
    "country": "Canada",
    "city": "Lourdes-De-Blanc-Sablon",
    "latitude": 51.443599700899995,
    "longitude": -57.185298919699996,
    "gps_code": "CYBX",
    "iata_code": "YBX"
  },
  {
    "id": "cc04b8ce-9e84-4dab-b479-fd15213042cd",
    "name": "Cartwright Airport",
    "is_hub": false,
    "is_destination": false,
    "type": "medium_airport",
    "country": "Canada",
    "city": "Cartwright",
    "latitude": 53.68280029296875,
    "longitude": -57.041900634765625,
    "gps_code": "CYCA",
    "iata_code": "YRF"
  },
  {
    "id": "5cd76d0b-db1b-4668-8e50-96ee914dbb6c",
    "name": "Cambridge Bay Airport",
    "is_hub": false,
    "is_destination": false,
    "type": "medium_airport",
    "country": "Canada",
    "city": "Cambridge Bay",
    "latitude": 69.1081008911,
    "longitude": -105.138000488,
    "gps_code": "CYCB",
    "iata_code": "YCB"
  },
  {
    "id": "f08e1c46-771c-4c96-83e4-45321b1c1bca",
    "name": "Cornwall Regional Airport",
    "is_hub": false,
    "is_destination": false,
    "type": "medium_airport",
    "country": "Canada",
    "city": "Cornwall",
    "latitude": 45.09280014038086,
    "longitude": -74.56330108642578,
    "gps_code": "CYCC",
    "iata_code": "YCC"
  },
  {
    "id": "6ebf1edc-9f70-42b7-94c0-6429a7e20bea",
    "name": "Nanaimo Airport",
    "is_hub": false,
    "is_destination": false,
    "type": "medium_airport",
    "country": "Canada",
    "city": "Nanaimo",
    "latitude": 49.054970224899996,
    "longitude": -123.869862556,
    "gps_code": "CYCD",
    "iata_code": "YCD"
  },
  {
    "id": "04343f54-3764-4f9b-a454-d1e7733b6dcf",
    "name": "Centralia / James T. Field Memorial Aerodrome",
    "is_hub": false,
    "is_destination": false,
    "type": "medium_airport",
    "country": "Canada",
    "city": "Centralia",
    "latitude": 43.285599,
    "longitude": -81.508301,
    "gps_code": "CYCE",
    "iata_code": "YCE"
  },
  {
    "id": "ddd4b8c2-5442-4a39-9181-237ddec1e907",
    "name": "Castlegar/West Kootenay Regional Airport",
    "is_hub": false,
    "is_destination": false,
    "type": "medium_airport",
    "country": "Canada",
    "city": "Castlegar",
    "latitude": 49.2963981628,
    "longitude": -117.632003784,
    "gps_code": "CYCG",
    "iata_code": "YCG"
  },
  {
    "id": "8cf2ab1e-acab-46fa-a818-5e542479c4e8",
    "name": "Miramichi Airport",
    "is_hub": false,
    "is_destination": false,
    "type": "medium_airport",
    "country": "Canada",
    "city": "Miramichi",
    "latitude": 47.007801,
    "longitude": -65.449203,
    "gps_code": "CYCH",
    "iata_code": "YCH"
  },
  {
    "id": "4397c9d9-371f-416c-a384-ce04f953d712",
    "name": "Charlo Airport",
    "is_hub": false,
    "is_destination": false,
    "type": "medium_airport",
    "country": "Canada",
    "city": "Charlo",
    "latitude": 47.990799,
    "longitude": -66.330299,
    "gps_code": "CYCL",
    "iata_code": "YCL"
  },
  {
    "id": "8e40d49a-4afc-4578-a06d-326e76a6f823",
    "name": "Cochrane Airport",
    "is_hub": false,
    "is_destination": false,
    "type": "medium_airport",
    "country": "Canada",
    "city": "Cochrane",
    "latitude": 49.10559844970703,
    "longitude": -81.01360321044922,
    "gps_code": "CYCN",
    "iata_code": "YCN"
  },
  {
    "id": "fe9d77f0-9d09-4d2c-8c6c-ee43de466432",
    "name": "Kugluktuk Airport",
    "is_hub": false,
    "is_destination": false,
    "type": "medium_airport",
    "country": "Canada",
    "city": "Kugluktuk",
    "latitude": 67.816704,
    "longitude": -115.143997,
    "gps_code": "CYCO",
    "iata_code": "YCO"
  },
  {
    "id": "784c9550-f6bc-4dc1-a477-9751a65dfee7",
    "name": "Chetwynd Airport",
    "is_hub": false,
    "is_destination": false,
    "type": "medium_airport",
    "country": "Canada",
    "city": "Chetwynd",
    "latitude": 55.687198638916016,
    "longitude": -121.62699890136719,
    "gps_code": "CYCQ",
    "iata_code": "YCQ"
  },
  {
    "id": "c51d8510-fb45-46b1-9078-570cb00a5bdb",
    "name": "Cross Lake (Charlie Sinclair Memorial) Airport",
    "is_hub": false,
    "is_destination": false,
    "type": "medium_airport",
    "country": "Canada",
    "city": "Cross Lake",
    "latitude": 54.610599517822266,
    "longitude": -97.76080322265625,
    "gps_code": "CYCR",
    "iata_code": "YCR"
  },
  {
    "id": "9356a95f-8634-48b8-835f-025c2c1d906a",
    "name": "Chesterfield Inlet Airport",
    "is_hub": false,
    "is_destination": false,
    "type": "medium_airport",
    "country": "Canada",
    "city": "Chesterfield Inlet",
    "latitude": 63.346900939899996,
    "longitude": -90.73110198970001,
    "gps_code": "CYCS",
    "iata_code": "YCS"
  },
  {
    "id": "43c01337-cd78-4080-b5ba-c0bc4ce92727",
    "name": "Clyde River Airport",
    "is_hub": false,
    "is_destination": false,
    "type": "medium_airport",
    "country": "Canada",
    "city": "Clyde River",
    "latitude": 70.4860992432,
    "longitude": -68.5167007446,
    "gps_code": "CYCY",
    "iata_code": "YCY"
  },
  {
    "id": "6199c3a3-9034-45da-8982-dbfbd20e5250",
    "name": "Dawson City Airport",
    "is_hub": false,
    "is_destination": false,
    "type": "medium_airport",
    "country": "Canada",
    "city": "Dawson City",
    "latitude": 64.04309844970703,
    "longitude": -139.1280059814453,
    "gps_code": "CYDA",
    "iata_code": "YDA"
  },
  {
    "id": "8dc7bc95-1a50-431c-8c05-32ab91b7422f",
    "name": "Burwash Airport",
    "is_hub": false,
    "is_destination": false,
    "type": "medium_airport",
    "country": "Canada",
    "city": "Burwash",
    "latitude": 61.37110137939453,
    "longitude": -139.04100036621094,
    "gps_code": "CYDB",
    "iata_code": "YDB"
  },
  {
    "id": "c268c7fc-1436-4b47-8bdc-070ee03ec9c7",
    "name": "Deer Lake Airport",
    "is_hub": false,
    "is_destination": false,
    "type": "medium_airport",
    "country": "Canada",
    "city": "Deer Lake",
    "latitude": 49.21080017089844,
    "longitude": -57.39139938354492,
    "gps_code": "CYDF",
    "iata_code": "YDF"
  },
  {
    "id": "76fda2ab-becb-49a7-8c97-ca952634bcbf",
    "name": "Ross River Airport",
    "is_hub": false,
    "is_destination": false,
    "type": "medium_airport",
    "country": "Canada",
    "city": "Ross River",
    "latitude": 61.9706001282,
    "longitude": -132.42300415,
    "gps_code": "CYDM",
    "iata_code": "XRR"
  },
  {
    "id": "6bea0c3e-c46b-4f7f-8371-a0c42e9d7774",
    "name": "Dauphin Barker Airport",
    "is_hub": false,
    "is_destination": false,
    "type": "medium_airport",
    "country": "Canada",
    "city": "Dauphin",
    "latitude": 51.100799560546875,
    "longitude": -100.052001953125,
    "gps_code": "CYDN",
    "iata_code": "YDN"
  },
  {
    "id": "0a886fa7-aaf5-4f69-9b72-f8cc533084a7",
    "name": "Dolbeau St Felicien Airport",
    "is_hub": false,
    "is_destination": false,
    "type": "medium_airport",
    "country": "Canada",
    "city": "Dolbeau-St-F\u00e9licien",
    "latitude": 48.778499603271,
    "longitude": -72.375,
    "gps_code": "CYDO",
    "iata_code": "YDO"
  },
  {
    "id": "8e04bfdb-3e0d-4449-aa82-273456094f94",
    "name": "Nain Airport",
    "is_hub": false,
    "is_destination": false,
    "type": "medium_airport",
    "country": "Canada",
    "city": "Nain",
    "latitude": 56.549198150634766,
    "longitude": -61.680301666259766,
    "gps_code": "CYDP",
    "iata_code": "YDP"
  },
  {
    "id": "502017c4-9a79-4c32-8c73-669878c38ee3",
    "name": "Dawson Creek Airport",
    "is_hub": false,
    "is_destination": false,
    "type": "medium_airport",
    "country": "Canada",
    "city": "Dawson Creek",
    "latitude": 55.7422981262207,
    "longitude": -120.18299865722656,
    "gps_code": "CYDQ",
    "iata_code": "YDQ"
  },
  {
    "id": "c7f4ce6b-3f3d-48b6-b2fd-9b3946f72a90",
    "name": "Edmonton International Airport",
    "is_hub": false,
    "is_destination": false,
    "type": "large_airport",
    "country": "Canada",
    "city": "Edmonton",
    "latitude": 53.309700012200004,
    "longitude": -113.580001831,
    "gps_code": "CYEG",
    "iata_code": "YEG"
  },
  {
    "id": "16f89995-e1c6-46a5-a4b5-3706bcc48ad4",
    "name": "Arviat Airport",
    "is_hub": false,
    "is_destination": false,
    "type": "medium_airport",
    "country": "Canada",
    "city": "Arviat",
    "latitude": 61.0942001343,
    "longitude": -94.07080078119999,
    "gps_code": "CYEK",
    "iata_code": "YEK"
  },
  {
    "id": "64bd794b-1038-4e59-83fd-c210b656873b",
    "name": "Elliot Lake Municipal Airport",
    "is_hub": false,
    "is_destination": false,
    "type": "medium_airport",
    "country": "Canada",
    "city": "Elliot Lake",
    "latitude": 46.351398468,
    "longitude": -82.5614013672,
    "gps_code": "CYEL",
    "iata_code": "YEL"
  },
  {
    "id": "86685333-09ce-4cd3-b85c-98c434661e50",
    "name": "Manitoulin East Municipal Airport",
    "is_hub": false,
    "is_destination": false,
    "type": "medium_airport",
    "country": "Canada",
    "city": "Manitowaning",
    "latitude": 45.84280014038086,
    "longitude": -81.85810089111328,
    "gps_code": "CYEM",
    "iata_code": "YEM"
  },
  {
    "id": "50e77f89-a54d-4629-876c-15932e5ea39c",
    "name": "Estevan Airport",
    "is_hub": false,
    "is_destination": false,
    "type": "medium_airport",
    "country": "Canada",
    "city": "Estevan",
    "latitude": 49.2103004456,
    "longitude": -102.966003418,
    "gps_code": "CYEN",
    "iata_code": "YEN"
  },
  {
    "id": "7ef3cb1e-8554-4d5c-85d9-8307ac215554",
    "name": "Fort Severn Airport",
    "is_hub": false,
    "is_destination": false,
    "type": "medium_airport",
    "country": "Canada",
    "city": "Fort Severn",
    "latitude": 56.01890182495117,
    "longitude": -87.67610168457031,
    "gps_code": "CYER",
    "iata_code": "YER"
  },
  {
    "id": "521e45e0-acd5-4af5-af1a-59198c3bd95e",
    "name": "Edson Airport",
    "is_hub": false,
    "is_destination": false,
    "type": "medium_airport",
    "country": "Canada",
    "city": "Edson",
    "latitude": 53.578899383499994,
    "longitude": -116.464996338,
    "gps_code": "CYET",
    "iata_code": "YET"
  },
  {
    "id": "20a89a5b-db40-4804-89d0-b7c74c2f8aaf",
    "name": "Inuvik Mike Zubko Airport",
    "is_hub": false,
    "is_destination": false,
    "type": "medium_airport",
    "country": "Canada",
    "city": "Inuvik",
    "latitude": 68.30419921880001,
    "longitude": -133.483001709,
    "gps_code": "CYEV",
    "iata_code": "YEV"
  },
  {
    "id": "97b7a3e6-ddfd-4bc5-a175-547b666b71e5",
    "name": "Amos/Magny Airport",
    "is_hub": false,
    "is_destination": false,
    "type": "medium_airport",
    "country": "Canada",
    "city": "Amos",
    "latitude": 48.563903,
    "longitude": -78.249702,
    "gps_code": "CYEY",
    "iata_code": "YEY"
  },
  {
    "id": "364a77a5-72f3-40a7-9bcc-3d4eeb81ce18",
    "name": "Fort Albany Airport",
    "is_hub": false,
    "is_destination": false,
    "type": "medium_airport",
    "country": "Canada",
    "city": "Fort Albany",
    "latitude": 52.20140075683594,
    "longitude": -81.6968994140625,
    "gps_code": "CYFA",
    "iata_code": "YFA"
  },
  {
    "id": "209652d3-fce7-4346-b0a2-07534d3f6ca6",
    "name": "Iqaluit Airport",
    "is_hub": false,
    "is_destination": false,
    "type": "medium_airport",
    "country": "Canada",
    "city": "Iqaluit",
    "latitude": 63.756402,
    "longitude": -68.555801,
    "gps_code": "CYFB",
    "iata_code": "YFB"
  },
  {
    "id": "7f5219d2-5d1c-4b91-9bf5-5e5e3b7904d8",
    "name": "Fredericton Airport",
    "is_hub": false,
    "is_destination": false,
    "type": "medium_airport",
    "country": "Canada",
    "city": "Fredericton",
    "latitude": 45.868900299072266,
    "longitude": -66.53720092773438,
    "gps_code": "CYFC",
    "iata_code": "YFC"
  },
  {
    "id": "1f04812b-f60c-453c-a240-faa6599815fa",
    "name": "Forestville Airport",
    "is_hub": false,
    "is_destination": false,
    "type": "medium_airport",
    "country": "Canada",
    "city": "Forestville",
    "latitude": 48.74610137939453,
    "longitude": -69.09719848632812,
    "gps_code": "CYFE",
    "iata_code": "YFE"
  },
  {
    "id": "78b5e75f-45b9-4382-af38-d2ee1395dc47",
    "name": "Fort Hope Airport",
    "is_hub": false,
    "is_destination": false,
    "type": "medium_airport",
    "country": "Canada",
    "city": "Fort Hope",
    "latitude": 51.5619010925293,
    "longitude": -87.90779876708984,
    "gps_code": "CYFH",
    "iata_code": "YFH"
  },
  {
    "id": "eb235352-5aab-478a-be13-a291de6e18e7",
    "name": "La Macaza / Mont-Tremblant International Inc Airport",
    "is_hub": false,
    "is_destination": false,
    "type": "medium_airport",
    "country": "Canada",
    "city": "Rivi\u00e8re Rouge",
    "latitude": 46.409400939899996,
    "longitude": -74.7799987793,
    "gps_code": "CYFJ",
    "iata_code": "YTM"
  },
  {
    "id": "9de6fcf7-ff72-4ecd-8183-868a5f493a2a",
    "name": "Flin Flon Airport",
    "is_hub": false,
    "is_destination": false,
    "type": "medium_airport",
    "country": "Canada",
    "city": "Flin Flon",
    "latitude": 54.6781005859375,
    "longitude": -101.68199920654297,
    "gps_code": "CYFO",
    "iata_code": "YFO"
  },
  {
    "id": "070c8709-66a0-4963-8318-171b3bfc3c79",
    "name": "Fort Resolution Airport",
    "is_hub": false,
    "is_destination": false,
    "type": "medium_airport",
    "country": "Canada",
    "city": "Fort Resolution",
    "latitude": 61.1808013916,
    "longitude": -113.690002441,
    "gps_code": "CYFR",
    "iata_code": "YFR"
  },
  {
    "id": "c6a8fba9-902b-44e1-bff5-12f38b309210",
    "name": "Fort Simpson Airport",
    "is_hub": false,
    "is_destination": false,
    "type": "medium_airport",
    "country": "Canada",
    "city": "Fort Simpson",
    "latitude": 61.76020050048828,
    "longitude": -121.23699951171875,
    "gps_code": "CYFS",
    "iata_code": "YFS"
  },
  {
    "id": "2ae73f0a-05d4-4010-bdbc-57855c1615b3",
    "name": "Makkovik Airport",
    "is_hub": false,
    "is_destination": false,
    "type": "medium_airport",
    "country": "Canada",
    "city": "Makkovik",
    "latitude": 55.076900482177734,
    "longitude": -59.1864013671875,
    "gps_code": "CYFT",
    "iata_code": "YMN"
  },
  {
    "id": "f7f21f43-ee22-4538-949c-3deb0cc2bf0f",
    "name": "Texada Gillies Bay Airport",
    "is_hub": false,
    "is_destination": false,
    "type": "medium_airport",
    "country": "Canada",
    "city": "Texada",
    "latitude": 49.69419860839844,
    "longitude": -124.51799774169922,
    "gps_code": "CYGB",
    "iata_code": "YGB"
  },
  {
    "id": "15a1baeb-2498-44ca-aafb-cefee0ab0098",
    "name": "Fort Good Hope Airport",
    "is_hub": false,
    "is_destination": false,
    "type": "medium_airport",
    "country": "Canada",
    "city": "Fort Good Hope",
    "latitude": 66.24079895019531,
    "longitude": -128.6510009765625,
    "gps_code": "CYGH",
    "iata_code": "YGH"
  },
  {
    "id": "27da3d32-fb33-4176-be7b-f9e8c570aade",
    "name": "Kingston Norman Rogers Airport",
    "is_hub": false,
    "is_destination": false,
    "type": "medium_airport",
    "country": "Canada",
    "city": "Kingston",
    "latitude": 44.22529983520508,
    "longitude": -76.5969009399414,
    "gps_code": "CYGK",
    "iata_code": "YGK"
  },
  {
    "id": "51edc54f-158b-453c-94b6-c7a8e6178878",
    "name": "La Grande Rivi\u00e8re Airport",
    "is_hub": false,
    "is_destination": false,
    "type": "medium_airport",
    "country": "Canada",
    "city": "La Grande Rivi\u00e8re",
    "latitude": 53.625301361083984,
    "longitude": -77.7042007446289,
    "gps_code": "CYGL",
    "iata_code": "YGL"
  },
  {
    "id": "218b8e85-e6c3-4306-b16c-2366caa3a975",
    "name": "Gimli Industrial Park Airport",
    "is_hub": false,
    "is_destination": false,
    "type": "medium_airport",
    "country": "Canada",
    "city": "Gimli",
    "latitude": 50.62810134887695,
    "longitude": -97.04329681396484,
    "gps_code": "CYGM",
    "iata_code": "YGM"
  },
  {
    "id": "78b5f7a0-8d71-4529-aa8e-fbd39c01b6e1",
    "name": "Gods Lake Narrows Airport",
    "is_hub": false,
    "is_destination": false,
    "type": "medium_airport",
    "country": "Canada",
    "city": "Gods Lake Narrows",
    "latitude": 54.55889892578125,
    "longitude": -94.49140167236328,
    "gps_code": "CYGO",
    "iata_code": "YGO"
  },
  {
    "id": "4a320d59-a809-4489-8bad-bf239a390979",
    "name": "Gasp\u00e9 (Michel-Pouliot) Airport",
    "is_hub": false,
    "is_destination": false,
    "type": "medium_airport",
    "country": "Canada",
    "city": "Gasp\u00e9",
    "latitude": 48.7752990723,
    "longitude": -64.4785995483,
    "gps_code": "CYGP",
    "iata_code": "YGP"
  },
  {
    "id": "47d06668-fb07-4de6-b3c1-e1d1b55fe4a6",
    "name": "Geraldton Greenstone Regional Airport",
    "is_hub": false,
    "is_destination": false,
    "type": "medium_airport",
    "country": "Canada",
    "city": "Geraldton",
    "latitude": 49.77830123901367,
    "longitude": -86.93939971923828,
    "gps_code": "CYGQ",
    "iata_code": "YGQ"
  },
  {
    "id": "82e3c6a1-a5d9-42e8-8c9b-4e35970ffd32",
    "name": "\u00celes-de-la-Madeleine Airport",
    "is_hub": false,
    "is_destination": false,
    "type": "medium_airport",
    "country": "Canada",
    "city": "\u00celes-de-la-Madeleine",
    "latitude": 47.42470169067383,
    "longitude": -61.778099060058594,
    "gps_code": "CYGR",
    "iata_code": "YGR"
  },
  {
    "id": "0d704f77-88e3-419c-bba3-f7b03db08a8f",
    "name": "Igloolik Airport",
    "is_hub": false,
    "is_destination": false,
    "type": "medium_airport",
    "country": "Canada",
    "city": "Igloolik",
    "latitude": 69.3647003174,
    "longitude": -81.8161010742,
    "gps_code": "CYGT",
    "iata_code": "YGT"
  },
  {
    "id": "33f4424b-fb57-45d9-9792-e56aaa375f3e",
    "name": "Havre St Pierre Airport",
    "is_hub": false,
    "is_destination": false,
    "type": "medium_airport",
    "country": "Canada",
    "city": "Havre St-Pierre",
    "latitude": 50.281898498535156,
    "longitude": -63.61140060424805,
    "gps_code": "CYGV",
    "iata_code": "YGV"
  },
  {
    "id": "103a17f5-d026-4fe5-98b2-e7cb346a046f",
    "name": "Kuujjuarapik Airport",
    "is_hub": false,
    "is_destination": false,
    "type": "medium_airport",
    "country": "Canada",
    "city": "Kuujjuarapik",
    "latitude": 55.281898498535156,
    "longitude": -77.76529693603516,
    "gps_code": "CYGW",
    "iata_code": "YGW"
  },
  {
    "id": "f6e44dd4-bc27-47bf-9af4-3093b07c9820",
    "name": "Gillam Airport",
    "is_hub": false,
    "is_destination": false,
    "type": "medium_airport",
    "country": "Canada",
    "city": "Gillam",
    "latitude": 56.35749816894531,
    "longitude": -94.71060180664062,
    "gps_code": "CYGX",
    "iata_code": "YGX"
  },
  {
    "id": "3ebfdf87-653f-4132-8ec7-7060dd72c8f4",
    "name": "Grise Fiord Airport",
    "is_hub": false,
    "is_destination": false,
    "type": "medium_airport",
    "country": "Canada",
    "city": "Grise Fiord",
    "latitude": 76.4261016846,
    "longitude": -82.90920257570001,
    "gps_code": "CYGZ",
    "iata_code": "YGZ"
  },
  {
    "id": "6c854046-3333-4fec-84ea-fca1c5fd2088",
    "name": "Quaqtaq Airport",
    "is_hub": false,
    "is_destination": false,
    "type": "medium_airport",
    "country": "Canada",
    "city": "Quaqtaq",
    "latitude": 61.0463981628418,
    "longitude": -69.6177978515625,
    "gps_code": "CYHA",
    "iata_code": "YQC"
  },
  {
    "id": "4f91a0a2-9ae9-47ee-854c-dcdde9f6cc55",
    "name": "Dryden Regional Airport",
    "is_hub": false,
    "is_destination": false,
    "type": "medium_airport",
    "country": "Canada",
    "city": "Dryden",
    "latitude": 49.831699,
    "longitude": -92.744202,
    "gps_code": "CYHD",
    "iata_code": "YHD"
  },
  {
    "id": "ea4b81b5-212a-4300-bbf0-acb894ef1a1b",
    "name": "Hope Airport",
    "is_hub": false,
    "is_destination": false,
    "type": "medium_airport",
    "country": "Canada",
    "city": "Hope",
    "latitude": 49.3683013916,
    "longitude": -121.498001099,
    "gps_code": "CYHE",
    "iata_code": "YHE"
  },
  {
    "id": "43ce2430-18e6-4ea1-866c-75e93dee304c",
    "name": "Hearst Ren\u00e9 Fontaine Municipal Airport",
    "is_hub": false,
    "is_destination": false,
    "type": "medium_airport",
    "country": "Canada",
    "city": "Hearst",
    "latitude": 49.71419906616211,
    "longitude": -83.68609619140625,
    "gps_code": "CYHF",
    "iata_code": "YHF"
  },
  {
    "id": "7e09032a-39c6-47b4-90a3-fe84699881ea",
    "name": "Nemiscau Airport",
    "is_hub": false,
    "is_destination": false,
    "type": "medium_airport",
    "country": "Canada",
    "city": "Nemiscau",
    "latitude": 51.69110107421875,
    "longitude": -76.1355972290039,
    "gps_code": "CYHH",
    "iata_code": "YNS"
  },
  {
    "id": "cba3d77c-5545-4924-abb7-f5eaed238db1",
    "name": "Ulukhaktok Holman Airport",
    "is_hub": false,
    "is_destination": false,
    "type": "medium_airport",
    "country": "Canada",
    "city": "Ulukhaktok",
    "latitude": 70.76280212402344,
    "longitude": -117.80599975585938,
    "gps_code": "CYHI",
    "iata_code": "YHI"
  },
  {
    "id": "9563a272-9d75-4ec2-b2ec-0ee488be0a56",
    "name": "Gjoa Haven Airport",
    "is_hub": false,
    "is_destination": false,
    "type": "medium_airport",
    "country": "Canada",
    "city": "Gjoa Haven",
    "latitude": 68.635597229,
    "longitude": -95.84970092770001,
    "gps_code": "CYHK",
    "iata_code": "YHK"
  },
  {
    "id": "de532275-819b-48fa-b42c-4b3fed3fbeb1",
    "name": "John C. Munro Hamilton International Airport",
    "is_hub": false,
    "is_destination": false,
    "type": "medium_airport",
    "country": "Canada",
    "city": "Hamilton",
    "latitude": 43.173599243199995,
    "longitude": -79.93499755859999,
    "gps_code": "CYHM",
    "iata_code": "YHM"
  },
  {
    "id": "9bba7920-0251-44b7-8f3e-410a117586fe",
    "name": "Hornepayne Municipal Airport",
    "is_hub": false,
    "is_destination": false,
    "type": "medium_airport",
    "country": "Canada",
    "city": "Hornepayne",
    "latitude": 49.19309997558594,
    "longitude": -84.75890350341797,
    "gps_code": "CYHN",
    "iata_code": "YHN"
  },
  {
    "id": "164db14f-f179-498c-9080-b493f887d0da",
    "name": "Hopedale Airport",
    "is_hub": false,
    "is_destination": false,
    "type": "medium_airport",
    "country": "Canada",
    "city": "Hopedale",
    "latitude": 55.448299407958984,
    "longitude": -60.228599548339844,
    "gps_code": "CYHO",
    "iata_code": "YHO"
  },
  {
    "id": "b8511ff2-08a1-498b-8720-0262c27e70bd",
    "name": "Chevery Airport",
    "is_hub": false,
    "is_destination": false,
    "type": "medium_airport",
    "country": "Canada",
    "city": "Chevery",
    "latitude": 50.46889877319336,
    "longitude": -59.63669967651367,
    "gps_code": "CYHR",
    "iata_code": "YHR"
  },
  {
    "id": "d3f81a97-eeea-4969-8d3b-5b8b9861b45a",
    "name": "Haines Junction Airport",
    "is_hub": false,
    "is_destination": false,
    "type": "medium_airport",
    "country": "Canada",
    "city": "Haines Junction",
    "latitude": 60.78919982910156,
    "longitude": -137.54600524902344,
    "gps_code": "CYHT",
    "iata_code": "YHT"
  },
  {
    "id": "a4c80e23-0cee-4842-b8af-d49f20482fed",
    "name": "Montr\u00e9al / Saint-Hubert Airport",
    "is_hub": false,
    "is_destination": false,
    "type": "medium_airport",
    "country": "Canada",
    "city": "Montr\u00e9al",
    "latitude": 45.5175018311,
    "longitude": -73.4169006348,
    "gps_code": "CYHU",
    "iata_code": "YHU"
  },
  {
    "id": "5bcb841d-bb07-470d-8b92-5e38682b980d",
    "name": "Hay River / Merlyn Carter Airport",
    "is_hub": false,
    "is_destination": false,
    "type": "medium_airport",
    "country": "Canada",
    "city": "Hay River",
    "latitude": 60.8396987915,
    "longitude": -115.782997131,
    "gps_code": "CYHY",
    "iata_code": "YHY"
  },
  {
    "id": "b129e03a-85b6-4e7d-bbb6-95e89865258c",
    "name": "Halifax / Stanfield International Airport",
    "is_hub": false,
    "is_destination": false,
    "type": "large_airport",
    "country": "Canada",
    "city": "Halifax",
    "latitude": 44.8807983398,
    "longitude": -63.5085983276,
    "gps_code": "CYHZ",
    "iata_code": "YHZ"
  },
  {
    "id": "65e7ec0c-3bee-4132-a159-50c29afd4558",
    "name": "Atikokan Municipal Airport",
    "is_hub": false,
    "is_destination": false,
    "type": "medium_airport",
    "country": "Canada",
    "city": "Atikokan",
    "latitude": 48.7738990784,
    "longitude": -91.6386032104,
    "gps_code": "CYIB",
    "iata_code": "YIB"
  },
  {
    "id": "0efee442-ce78-4ecd-84ab-17c6963a75bd",
    "name": "Digby / Annapolis Regional Airport",
    "is_hub": false,
    "is_destination": false,
    "type": "medium_airport",
    "country": "Canada",
    "city": "Digby",
    "latitude": 44.5458450365,
    "longitude": -65.7854247093,
    "gps_code": "CYID",
    "iata_code": "YDG"
  },
  {
    "id": "4b13037f-8327-40b8-ac2b-883c68d28175",
    "name": "St Augustin Airport",
    "is_hub": false,
    "is_destination": false,
    "type": "medium_airport",
    "country": "Canada",
    "city": "St-Augustin",
    "latitude": 51.2117004395,
    "longitude": -58.6582984924,
    "gps_code": "CYIF",
    "iata_code": "YIF"
  },
  {
    "id": "e623a570-6735-4944-b742-219e13464e96",
    "name": "Ivujivik Airport",
    "is_hub": false,
    "is_destination": false,
    "type": "medium_airport",
    "country": "Canada",
    "city": "Ivujivik",
    "latitude": 62.417301177978516,
    "longitude": -77.92530059814453,
    "gps_code": "CYIK",
    "iata_code": "YIK"
  },
  {
    "id": "01a9d22a-d46f-49aa-920f-f2719fb41972",
    "name": "Pond Inlet Airport",
    "is_hub": false,
    "is_destination": false,
    "type": "medium_airport",
    "country": "Canada",
    "city": "Pond Inlet",
    "latitude": 72.6832962036,
    "longitude": -77.9666976929,
    "gps_code": "CYIO",
    "iata_code": "YIO"
  },
  {
    "id": "6fcc665e-d9e5-46e7-b9d5-55b9d7212400",
    "name": "Island Lake Airport",
    "is_hub": false,
    "is_destination": false,
    "type": "medium_airport",
    "country": "Canada",
    "city": "Island Lake",
    "latitude": 53.857200622558594,
    "longitude": -94.65360260009766,
    "gps_code": "CYIV",
    "iata_code": "YIV"
  },
  {
    "id": "8f3e9ff4-212f-43d1-832b-59c2b60d9c5c",
    "name": "Fort Liard Airport",
    "is_hub": false,
    "is_destination": false,
    "type": "medium_airport",
    "country": "Canada",
    "city": "Fort Liard",
    "latitude": 60.235801696799996,
    "longitude": -123.46900177,
    "gps_code": "CYJF",
    "iata_code": "YJF"
  },
  {
    "id": "81725880-c56a-46c1-b0eb-a7a4cf773120",
    "name": "St Jean Airport",
    "is_hub": false,
    "is_destination": false,
    "type": "medium_airport",
    "country": "Canada",
    "city": "St Jean",
    "latitude": 45.29439926147461,
    "longitude": -73.28109741210938,
    "gps_code": "CYJN",
    "iata_code": "YJN"
  },
  {
    "id": "ff6b2519-afeb-4063-80cb-ee8e4d447aa6",
    "name": "Stephenville Airport",
    "is_hub": false,
    "is_destination": false,
    "type": "medium_airport",
    "country": "Canada",
    "city": "Stephenville",
    "latitude": 48.5442008972168,
    "longitude": -58.54999923706055,
    "gps_code": "CYJT",
    "iata_code": "YJT"
  },
  {
    "id": "6840679f-cb41-47d8-80d2-fcff2370b5b7",
    "name": "Kamloops Airport",
    "is_hub": false,
    "is_destination": false,
    "type": "medium_airport",
    "country": "Canada",
    "city": "Kamloops",
    "latitude": 50.7022018433,
    "longitude": -120.444000244,
    "gps_code": "CYKA",
    "iata_code": "YKA"
  },
  {
    "id": "c15b8e1d-4c11-407a-b7f8-a670845b4d05",
    "name": "Aklavik/Freddie Carmichael Airport",
    "is_hub": false,
    "is_destination": false,
    "type": "medium_airport",
    "country": "Canada",
    "city": "Aklavik",
    "latitude": 68.223297,
    "longitude": -135.00599,
    "gps_code": "CYKD",
    "iata_code": "LAK"
  },
  {
    "id": "cb1aa532-d3a0-4fb2-add2-79645fd385d7",
    "name": "Waterloo Airport",
    "is_hub": false,
    "is_destination": false,
    "type": "medium_airport",
    "country": "Canada",
    "city": "Kitchener",
    "latitude": 43.460800170899994,
    "longitude": -80.3786010742,
    "gps_code": "CYKF",
    "iata_code": "YKF"
  },
  {
    "id": "759106e4-f7a5-42c2-b249-7ee01caf9973",
    "name": "Kangiqsujuaq (Wakeham Bay) Airport",
    "is_hub": false,
    "is_destination": false,
    "type": "medium_airport",
    "country": "Canada",
    "city": "Kangiqsujuaq",
    "latitude": 61.5886001587,
    "longitude": -71.929397583,
    "gps_code": "CYKG",
    "iata_code": "YWB"
  },
  {
    "id": "6c65e9f3-cc84-4ad4-8aeb-543aa8e9d588",
    "name": "Key Lake Airport",
    "is_hub": false,
    "is_destination": false,
    "type": "medium_airport",
    "country": "Canada",
    "city": "Key Lake",
    "latitude": 57.256099700927734,
    "longitude": -105.61799621582031,
    "gps_code": "CYKJ",
    "iata_code": "YKJ"
  },
  {
    "id": "f2d4d1e0-f704-4df0-8bd5-a7bfd94869d6",
    "name": "Schefferville Airport",
    "is_hub": false,
    "is_destination": false,
    "type": "medium_airport",
    "country": "Canada",
    "city": "Schefferville",
    "latitude": 54.805301666259766,
    "longitude": -66.8052978515625,
    "gps_code": "CYKL",
    "iata_code": "YKL"
  },
  {
    "id": "bef96bb0-5213-418d-9a8e-7a4e80223cc5",
    "name": "Akulivik Airport",
    "is_hub": false,
    "is_destination": false,
    "type": "medium_airport",
    "country": "Canada",
    "city": "Akulivik",
    "latitude": 60.818599700927734,
    "longitude": -78.14859771728516,
    "gps_code": "CYKO",
    "iata_code": "AKV"
  },
  {
    "id": "690e183a-05d1-4b98-aa1c-ab9a85013020",
    "name": "Waskaganish Airport",
    "is_hub": false,
    "is_destination": false,
    "type": "medium_airport",
    "country": "Canada",
    "city": "Waskaganish",
    "latitude": 51.47330093383789,
    "longitude": -78.75830078125,
    "gps_code": "CYKQ",
    "iata_code": "YKQ"
  },
  {
    "id": "f6001fd8-875d-452b-9777-fd644590421c",
    "name": "Kirkland Lake Airport",
    "is_hub": false,
    "is_destination": false,
    "type": "medium_airport",
    "country": "Canada",
    "city": "Kirkland Lake",
    "latitude": 48.21030044555664,
    "longitude": -79.98139953613281,
    "gps_code": "CYKX",
    "iata_code": "YKX"
  },
  {
    "id": "1a3b8423-ef9f-4401-98a6-f86e602cba63",
    "name": "Kindersley Airport",
    "is_hub": false,
    "is_destination": false,
    "type": "medium_airport",
    "country": "Canada",
    "city": "Kindersley",
    "latitude": 51.5175018311,
    "longitude": -109.180999756,
    "gps_code": "CYKY",
    "iata_code": "YKY"
  },
  {
    "id": "ad53ec5d-d09b-4dcf-a75d-2e1e4b080647",
    "name": "Buttonville Municipal Airport",
    "is_hub": false,
    "is_destination": true,
    "type": "medium_airport",
    "country": "Canada",
    "city": "Toronto",
    "latitude": 43.86220169067383,
    "longitude": -79.37000274658203,
    "gps_code": "CYKZ",
    "iata_code": "YKZ"
  },
  {
    "id": "fb50eda9-0c5a-4797-9c77-9ff1adb0b5b3",
    "name": "Aupaluk Airport",
    "is_hub": false,
    "is_destination": false,
    "type": "medium_airport",
    "country": "Canada",
    "city": "Aupaluk",
    "latitude": 59.29669952392578,
    "longitude": -69.59970092773438,
    "gps_code": "CYLA",
    "iata_code": "YPJ"
  },
  {
    "id": "a3e577a3-eae4-42d4-b5a7-4c04860fcf20",
    "name": "Kimmirut Airport",
    "is_hub": false,
    "is_destination": false,
    "type": "medium_airport",
    "country": "Canada",
    "city": "Kimmirut",
    "latitude": 62.8499984741,
    "longitude": -69.88330078119999,
    "gps_code": "CYLC",
    "iata_code": "YLC"
  },
  {
    "id": "55367f72-6180-4645-a7b1-3b6d97ef8839",
    "name": "Chapleau Airport",
    "is_hub": false,
    "is_destination": false,
    "type": "medium_airport",
    "country": "Canada",
    "city": "Chapleau",
    "latitude": 47.81999969482422,
    "longitude": -83.3467025756836,
    "gps_code": "CYLD",
    "iata_code": "YLD"
  },
  {
    "id": "65e20743-9f3e-461c-8c96-456d78cd3480",
    "name": "Lansdowne House Airport",
    "is_hub": false,
    "is_destination": false,
    "type": "medium_airport",
    "country": "Canada",
    "city": "Lansdowne House",
    "latitude": 52.19559860229492,
    "longitude": -87.93419647216797,
    "gps_code": "CYLH",
    "iata_code": "YLH"
  },
  {
    "id": "db3a6ec0-463e-4e35-934b-bd70871db3a4",
    "name": "Meadow Lake Airport",
    "is_hub": false,
    "is_destination": false,
    "type": "medium_airport",
    "country": "Canada",
    "city": "Meadow Lake",
    "latitude": 54.125301361083984,
    "longitude": -108.52300262451172,
    "gps_code": "CYLJ",
    "iata_code": "YLJ"
  },
  {
    "id": "618a7b67-8cb8-4a12-9203-ee78ef378d1c",
    "name": "Lutselk'e Airport",
    "is_hub": false,
    "is_destination": false,
    "type": "medium_airport",
    "country": "Canada",
    "city": "Lutselk'e",
    "latitude": 62.418303,
    "longitude": -110.681998,
    "gps_code": "CYLK",
    "iata_code": "YSG"
  },
  {
    "id": "23c2f5e5-8ee5-4a38-8913-9ae10345b87c",
    "name": "Lloydminster Airport",
    "is_hub": false,
    "is_destination": false,
    "type": "medium_airport",
    "country": "Canada",
    "city": "Lloydminster",
    "latitude": 53.309200286865234,
    "longitude": -110.072998046875,
    "gps_code": "CYLL",
    "iata_code": "YLL"
  },
  {
    "id": "401e665b-f44f-4f7b-9656-164842dbeb06",
    "name": "Leaf Rapids Airport",
    "is_hub": false,
    "is_destination": false,
    "type": "medium_airport",
    "country": "Canada",
    "city": "Leaf Rapids",
    "latitude": 56.513301849365234,
    "longitude": -99.98529815673828,
    "gps_code": "CYLR",
    "iata_code": "YLR"
  },
  {
    "id": "9e9c0001-86ac-4d0c-9a6d-816d06a4920c",
    "name": "Alert Airport",
    "is_hub": false,
    "is_destination": false,
    "type": "medium_airport",
    "country": "Canada",
    "city": "Alert",
    "latitude": 82.51779937740001,
    "longitude": -62.2806015015,
    "gps_code": "CYLT",
    "iata_code": "YLT"
  },
  {
    "id": "2d8d32b9-9e42-4ca3-84bb-5a41f4b85a66",
    "name": "Kangiqsualujjuaq (Georges River) Airport",
    "is_hub": false,
    "is_destination": false,
    "type": "medium_airport",
    "country": "Canada",
    "city": "Kangiqsualujjuaq",
    "latitude": 58.71139907836914,
    "longitude": -65.9927978515625,
    "gps_code": "CYLU",
    "iata_code": "XGR"
  },
  {
    "id": "a64f3af4-4654-4346-a47b-c062b1757c1e",
    "name": "Kelowna International Airport",
    "is_hub": false,
    "is_destination": false,
    "type": "medium_airport",
    "country": "Canada",
    "city": "Kelowna",
    "latitude": 49.9561004639,
    "longitude": -119.377998352,
    "gps_code": "CYLW",
    "iata_code": "YLW"
  },
  {
    "id": "7684af45-1e1b-4e4d-ba82-06a199082636",
    "name": "Mayo Airport",
    "is_hub": false,
    "is_destination": false,
    "type": "medium_airport",
    "country": "Canada",
    "city": "Mayo",
    "latitude": 63.61640167236328,
    "longitude": -135.8679962158203,
    "gps_code": "CYMA",
    "iata_code": "YMA"
  },
  {
    "id": "add87052-ab9b-4e7c-a7e9-8a3f9945a317",
    "name": "Matane Airport",
    "is_hub": false,
    "is_destination": false,
    "type": "medium_airport",
    "country": "Canada",
    "city": "Matane",
    "latitude": 48.85689926147461,
    "longitude": -67.45330047607422,
    "gps_code": "CYME",
    "iata_code": "YME"
  },
  {
    "id": "c8af2886-fe0c-4d4d-9294-1e030f60c0ae",
    "name": "Manitouwadge Airport",
    "is_hub": false,
    "is_destination": false,
    "type": "medium_airport",
    "country": "Canada",
    "city": "Manitouwadge",
    "latitude": 49.083900451660156,
    "longitude": -85.86060333251953,
    "gps_code": "CYMG",
    "iata_code": "YMG"
  },
  {
    "id": "c69b8fc7-730c-499c-8fbc-74af60c520ac",
    "name": "Mary's Harbour Airport",
    "is_hub": false,
    "is_destination": false,
    "type": "medium_airport",
    "country": "Canada",
    "city": "Mary's Harbour",
    "latitude": 52.302799224853516,
    "longitude": -55.847198486328125,
    "gps_code": "CYMH",
    "iata_code": "YMH"
  },
  {
    "id": "dcf5f883-aa8f-4e50-b29d-761229947466",
    "name": "Moose Jaw Air Vice Marshal C. M. McEwen Airport",
    "is_hub": false,
    "is_destination": false,
    "type": "medium_airport",
    "country": "Canada",
    "city": "Moose Jaw",
    "latitude": 50.330299377441406,
    "longitude": -105.55899810791016,
    "gps_code": "CYMJ",
    "iata_code": "YMJ"
  },
  {
    "id": "05cc4eb6-09af-4f57-84b0-7516de87484e",
    "name": "Charlevoix Airport",
    "is_hub": false,
    "is_destination": false,
    "type": "medium_airport",
    "country": "Canada",
    "city": "Charlevoix",
    "latitude": 47.59749984741211,
    "longitude": -70.2238998413086,
    "gps_code": "CYML",
    "iata_code": "YML"
  },
  {
    "id": "caac0469-3064-4a1f-8e9d-f06e3c93d407",
    "name": "Fort McMurray Airport",
    "is_hub": false,
    "is_destination": false,
    "type": "medium_airport",
    "country": "Canada",
    "city": "Fort McMurray",
    "latitude": 56.653301239,
    "longitude": -111.222000122,
    "gps_code": "CYMM",
    "iata_code": "YMM"
  },
  {
    "id": "39576f65-ceab-4230-81e3-5c8082e23b04",
    "name": "Moosonee Airport",
    "is_hub": false,
    "is_destination": false,
    "type": "medium_airport",
    "country": "Canada",
    "city": "Moosonee",
    "latitude": 51.291099548339844,
    "longitude": -80.60780334472656,
    "gps_code": "CYMO",
    "iata_code": "YMO"
  },
  {
    "id": "20838594-b6ec-4543-9ce5-bcbe1c229882",
    "name": "Chapais Airport",
    "is_hub": false,
    "is_destination": false,
    "type": "medium_airport",
    "country": "Canada",
    "city": "Chibougamau",
    "latitude": 49.77190017700195,
    "longitude": -74.5280990600586,
    "gps_code": "CYMT",
    "iata_code": "YMT"
  },
  {
    "id": "a844548d-44f5-4642-a602-cd5ddc65d1c3",
    "name": "Umiujaq Airport",
    "is_hub": false,
    "is_destination": false,
    "type": "medium_airport",
    "country": "Canada",
    "city": "Umiujaq",
    "latitude": 56.53609848022461,
    "longitude": -76.51830291748047,
    "gps_code": "CYMU",
    "iata_code": "YUD"
  },
  {
    "id": "eb8d9c2c-7b3b-4e22-98bc-abc964b6150c",
    "name": "Montreal International (Mirabel) Airport",
    "is_hub": false,
    "is_destination": false,
    "type": "medium_airport",
    "country": "Canada",
    "city": "Montr\u00e9al",
    "latitude": 45.679501,
    "longitude": -74.038696,
    "gps_code": "CYMX",
    "iata_code": "YMX"
  },
  {
    "id": "d462dee3-0d13-434c-83c7-66fed5665414",
    "name": "Natashquan Airport",
    "is_hub": false,
    "is_destination": false,
    "type": "medium_airport",
    "country": "Canada",
    "city": "Natashquan",
    "latitude": 50.189998626708984,
    "longitude": -61.78919982910156,
    "gps_code": "CYNA",
    "iata_code": "YNA"
  },
  {
    "id": "d3fb34a3-1a35-4aa2-bd11-cdabc6aaa4bd",
    "name": "Wemindji Airport",
    "is_hub": false,
    "is_destination": false,
    "type": "medium_airport",
    "country": "Canada",
    "city": "Wemindji",
    "latitude": 53.01060104370117,
    "longitude": -78.83110046386719,
    "gps_code": "CYNC",
    "iata_code": "YNC"
  },
  {
    "id": "48b7d5ff-5ddf-4290-b1d5-84aa961f8997",
    "name": "Ottawa / Gatineau Airport",
    "is_hub": false,
    "is_destination": false,
    "type": "medium_airport",
    "country": "Canada",
    "city": "Gatineau",
    "latitude": 45.521701812699995,
    "longitude": -75.5635986328,
    "gps_code": "CYND",
    "iata_code": "YND"
  },
  {
    "id": "06d7e3fa-4996-4aba-934a-dfebcf293bdc",
    "name": "Norway House Airport",
    "is_hub": false,
    "is_destination": false,
    "type": "medium_airport",
    "country": "Canada",
    "city": "Norway House",
    "latitude": 53.95830154418945,
    "longitude": -97.84420013427734,
    "gps_code": "CYNE",
    "iata_code": "YNE"
  },
  {
    "id": "146eaac4-1ee2-4b9a-a3b8-4c19bd3565d9",
    "name": "Points North Landing Airport",
    "is_hub": false,
    "is_destination": false,
    "type": "medium_airport",
    "country": "Canada",
    "city": "Points North Landing",
    "latitude": 58.27669906616211,
    "longitude": -104.08200073242188,
    "gps_code": "CYNL",
    "iata_code": "YNL"
  },
  {
    "id": "4c20838e-c20c-4bd4-bbbc-7e102e42b8d0",
    "name": "Matagami Airport",
    "is_hub": false,
    "is_destination": false,
    "type": "medium_airport",
    "country": "Canada",
    "city": "Matagami",
    "latitude": 49.76169967651367,
    "longitude": -77.80280303955078,
    "gps_code": "CYNM",
    "iata_code": "YNM"
  },
  {
    "id": "76336132-e491-46e7-91df-5c4b7bfe8ef1",
    "name": "Ekati Airport",
    "is_hub": false,
    "is_destination": false,
    "type": "medium_airport",
    "country": "Canada",
    "city": "Ekati",
    "latitude": 64.6988983154,
    "longitude": -110.614997864,
    "gps_code": "CYOA",
    "iata_code": "YOA"
  },
  {
    "id": "68aff068-851a-4f6a-92af-bede70f8e1a1",
    "name": "Old Crow Airport",
    "is_hub": false,
    "is_destination": false,
    "type": "medium_airport",
    "country": "Canada",
    "city": "Old Crow",
    "latitude": 67.57060241699219,
    "longitude": -139.83900451660156,
    "gps_code": "CYOC",
    "iata_code": "YOC"
  },
  {
    "id": "72e84e44-2b6d-487a-863b-6ab3601bfb6d",
    "name": "CFB Cold Lake",
    "is_hub": false,
    "is_destination": false,
    "type": "medium_airport",
    "country": "Canada",
    "city": "Cold Lake",
    "latitude": 54.404998779296875,
    "longitude": -110.27899932861328,
    "gps_code": "CYOD",
    "iata_code": "YOD"
  },
  {
    "id": "393eddd2-5d87-42c6-ba87-a13f96d36869",
    "name": "Oxford House Airport",
    "is_hub": false,
    "is_destination": false,
    "type": "medium_airport",
    "country": "Canada",
    "city": "Oxford House",
    "latitude": 54.93330001831055,
    "longitude": -95.27890014648438,
    "gps_code": "CYOH",
    "iata_code": "YOH"
  },
  {
    "id": "001118ba-95d1-48e1-bdb0-0f0d4bc264a3",
    "name": "High Level Airport",
    "is_hub": false,
    "is_destination": false,
    "type": "medium_airport",
    "country": "Canada",
    "city": "High Level",
    "latitude": 58.62139892578125,
    "longitude": -117.16500091552734,
    "gps_code": "CYOJ",
    "iata_code": "YOJ"
  },
  {
    "id": "6babf831-b237-42ac-bfac-bdefb0405301",
    "name": "Toronto/Oshawa Executive Airport",
    "is_hub": false,
    "is_destination": false,
    "type": "medium_airport",
    "country": "Canada",
    "city": "Oshawa",
    "latitude": 43.922798,
    "longitude": -78.894997,
    "gps_code": "CYOO",
    "iata_code": "YOO"
  },
  {
    "id": "446952d0-9c0f-40d9-8ce9-f3f11044a2b1",
    "name": "Rainbow Lake Airport",
    "is_hub": false,
    "is_destination": false,
    "type": "medium_airport",
    "country": "Canada",
    "city": "Rainbow Lake",
    "latitude": 58.49140167236328,
    "longitude": -119.40799713134766,
    "gps_code": "CYOP",
    "iata_code": "YOP"
  },
  {
    "id": "ab28fcc3-fe23-42d2-a754-7425d699f809",
    "name": "Owen Sound / Billy Bishop Regional Airport",
    "is_hub": false,
    "is_destination": false,
    "type": "medium_airport",
    "country": "Canada",
    "city": "Owen Sound",
    "latitude": 44.5903015137,
    "longitude": -80.8375015259,
    "gps_code": "CYOS",
    "iata_code": "YOS"
  },
  {
    "id": "56a8d1ab-0ce2-42c0-8ec3-21f1c3d70d32",
    "name": "Ottawa Macdonald-Cartier International Airport",
    "is_hub": false,
    "is_destination": true,
    "type": "large_airport",
    "country": "Canada",
    "city": "Ottawa",
    "latitude": 45.3224983215332,
    "longitude": -75.66919708251953,
    "gps_code": "CYOW",
    "iata_code": "YOW"
  },
  {
    "id": "2ec34d24-19af-4ade-8bb5-c0a006fa20c8",
    "name": "Prince Albert Glass Field",
    "is_hub": false,
    "is_destination": false,
    "type": "medium_airport",
    "country": "Canada",
    "city": "Prince Albert",
    "latitude": 53.214199066199996,
    "longitude": -105.672996521,
    "gps_code": "CYPA",
    "iata_code": "YPA"
  },
  {
    "id": "e501b9b9-8e4c-4570-bb60-98d54b35b799",
    "name": "Paulatuk (Nora Aliqatchialuk Ruben) Airport",
    "is_hub": false,
    "is_destination": false,
    "type": "medium_airport",
    "country": "Canada",
    "city": "Paulatuk",
    "latitude": 69.3608381154,
    "longitude": -124.075469971,
    "gps_code": "CYPC",
    "iata_code": "YPC"
  },
  {
    "id": "821b2144-6ef5-445a-b394-25ac650a25cb",
    "name": "Port Hawkesbury Airport",
    "is_hub": false,
    "is_destination": false,
    "type": "medium_airport",
    "country": "Canada",
    "city": "Port Hawkesbury",
    "latitude": 45.6567001343,
    "longitude": -61.3680992126,
    "gps_code": "CYPD",
    "iata_code": "YPS"
  },
  {
    "id": "6396be9d-c290-4f30-9c42-b0d2b0afc802",
    "name": "Peace River Airport",
    "is_hub": false,
    "is_destination": false,
    "type": "medium_airport",
    "country": "Canada",
    "city": "Peace River",
    "latitude": 56.226898,
    "longitude": -117.446999,
    "gps_code": "CYPE",
    "iata_code": "YPE"
  },
  {
    "id": "47dd2c05-254d-4b00-bb8e-509de7afa675",
    "name": "Southport Airport",
    "is_hub": false,
    "is_destination": false,
    "type": "medium_airport",
    "country": "Canada",
    "city": "Portage la Prairie",
    "latitude": 49.903099,
    "longitude": -98.273817,
    "gps_code": "CYPG",
    "iata_code": "YPG"
  },
  {
    "id": "7a5e9e8f-3a25-448d-ae47-c7a461761888",
    "name": "Inukjuak Airport",
    "is_hub": false,
    "is_destination": false,
    "type": "medium_airport",
    "country": "Canada",
    "city": "Inukjuak",
    "latitude": 58.471900939941406,
    "longitude": -78.07689666748047,
    "gps_code": "CYPH",
    "iata_code": "YPH"
  },
  {
    "id": "8ebcbac1-8e79-4381-a651-0039d0b26dcb",
    "name": "Pickle Lake Airport",
    "is_hub": false,
    "is_destination": false,
    "type": "medium_airport",
    "country": "Canada",
    "city": "Pickle Lake",
    "latitude": 51.4463996887207,
    "longitude": -90.21420288085938,
    "gps_code": "CYPL",
    "iata_code": "YPL"
  },
  {
    "id": "88dc9400-4cd1-4ad7-ad93-f80e66576dfb",
    "name": "Pikangikum Airport",
    "is_hub": false,
    "is_destination": false,
    "type": "medium_airport",
    "country": "Canada",
    "city": "Pikangikum",
    "latitude": 51.819698333740234,
    "longitude": -93.97329711914062,
    "gps_code": "CYPM",
    "iata_code": "YPM"
  },
  {
    "id": "2e4607cb-54e0-4c5a-86ac-661baf5ea409",
    "name": "Port Menier Airport",
    "is_hub": false,
    "is_destination": false,
    "type": "medium_airport",
    "country": "Canada",
    "city": "Port-Menier",
    "latitude": 49.83639907836914,
    "longitude": -64.2885971069336,
    "gps_code": "CYPN",
    "iata_code": "YPN"
  },
  {
    "id": "52df7d78-4f97-4274-857b-1b54d208940b",
    "name": "Peawanuck Airport",
    "is_hub": false,
    "is_destination": false,
    "type": "medium_airport",
    "country": "Canada",
    "city": "Peawanuck",
    "latitude": 54.98809814453125,
    "longitude": -85.44329833984375,
    "gps_code": "CYPO",
    "iata_code": "YPO"
  },
  {
    "id": "57a08a6d-60c2-436a-9e2e-5888406e2358",
    "name": "Peterborough Airport",
    "is_hub": false,
    "is_destination": false,
    "type": "medium_airport",
    "country": "Canada",
    "city": "Peterborough",
    "latitude": 44.22999954223633,
    "longitude": -78.36329650878906,
    "gps_code": "CYPQ",
    "iata_code": "YPQ"
  },
  {
    "id": "0a07bb81-349f-4231-8574-6c40398996b2",
    "name": "Prince Rupert Airport",
    "is_hub": false,
    "is_destination": false,
    "type": "medium_airport",
    "country": "Canada",
    "city": "Prince Rupert",
    "latitude": 54.286098480199996,
    "longitude": -130.445007324,
    "gps_code": "CYPR",
    "iata_code": "YPR"
  },
  {
    "id": "ec73b917-7438-4923-b25f-6304dbe4fa55",
    "name": "Powell River Airport",
    "is_hub": false,
    "is_destination": false,
    "type": "medium_airport",
    "country": "Canada",
    "city": "Powell River",
    "latitude": 49.83420181274414,
    "longitude": -124.5,
    "gps_code": "CYPW",
    "iata_code": "YPW"
  },
  {
    "id": "5d2c8566-fb06-4cf8-97dd-2708f243db0a",
    "name": "Puvirnituq Airport",
    "is_hub": false,
    "is_destination": false,
    "type": "medium_airport",
    "country": "Canada",
    "city": "Puvirnituq",
    "latitude": 60.05059814453125,
    "longitude": -77.28690338134766,
    "gps_code": "CYPX",
    "iata_code": "YPX"
  },
  {
    "id": "7b7dc366-ef1b-47ba-b75e-17a6109982f0",
    "name": "Fort Chipewyan Airport",
    "is_hub": false,
    "is_destination": false,
    "type": "medium_airport",
    "country": "Canada",
    "city": "Fort Chipewyan",
    "latitude": 58.7672004699707,
    "longitude": -111.11699676513672,
    "gps_code": "CYPY",
    "iata_code": "YPY"
  },
  {
    "id": "ed4fbaa3-b747-4a3d-9090-49d81e949d79",
    "name": "Muskoka Airport",
    "is_hub": false,
    "is_destination": false,
    "type": "medium_airport",
    "country": "Canada",
    "city": "Muskoka",
    "latitude": 44.974700927734375,
    "longitude": -79.30329895019531,
    "gps_code": "CYQA",
    "iata_code": "YQA"
  },
  {
    "id": "91d9becd-06ba-4ed9-9e25-23359dac1df4",
    "name": "Quebec Jean Lesage International Airport",
    "is_hub": false,
    "is_destination": false,
    "type": "medium_airport",
    "country": "Canada",
    "city": "Quebec",
    "latitude": 46.7911,
    "longitude": -71.393303,
    "gps_code": "CYQB",
    "iata_code": "YQB"
  },
  {
    "id": "1a2b5095-e873-4d5d-869c-8051c8c82e0a",
    "name": "The Pas Airport",
    "is_hub": false,
    "is_destination": false,
    "type": "medium_airport",
    "country": "Canada",
    "city": "The Pas",
    "latitude": 53.97140121459961,
    "longitude": -101.09100341796875,
    "gps_code": "CYQD",
    "iata_code": "YQD"
  },
  {
    "id": "0ab4f307-c778-468d-bc6c-d0e26a4cf757",
    "name": "Red Deer Regional Airport",
    "is_hub": false,
    "is_destination": false,
    "type": "medium_airport",
    "country": "Canada",
    "city": "Red Deer",
    "latitude": 52.18220138549805,
    "longitude": -113.89399719238281,
    "gps_code": "CYQF",
    "iata_code": "YQF"
  },
  {
    "id": "80ae299a-5bb0-40c5-bd31-6da65dc8a491",
    "name": "Windsor Airport",
    "is_hub": false,
    "is_destination": false,
    "type": "medium_airport",
    "country": "Canada",
    "city": "Windsor",
    "latitude": 42.27560043334961,
    "longitude": -82.95559692382812,
    "gps_code": "CYQG",
    "iata_code": "YQG"
  },
  {
    "id": "57751569-7bb0-49e3-8406-38b39d9a85d2",
    "name": "Watson Lake Airport",
    "is_hub": false,
    "is_destination": false,
    "type": "medium_airport",
    "country": "Canada",
    "city": "Watson Lake",
    "latitude": 60.11640167236328,
    "longitude": -128.82200622558594,
    "gps_code": "CYQH",
    "iata_code": "YQH"
  },
  {
    "id": "4937416d-389d-4c2c-9eda-273ffc56e071",
    "name": "Yarmouth Airport",
    "is_hub": false,
    "is_destination": false,
    "type": "medium_airport",
    "country": "Canada",
    "city": "Yarmouth",
    "latitude": 43.826900482177734,
    "longitude": -66.08809661865234,
    "gps_code": "CYQI",
    "iata_code": "YQI"
  },
  {
    "id": "27a561c1-5f3e-41d9-bb7c-d99e98b699b1",
    "name": "Kenora Airport",
    "is_hub": false,
    "is_destination": false,
    "type": "medium_airport",
    "country": "Canada",
    "city": "Kenora",
    "latitude": 49.788299560546875,
    "longitude": -94.36309814453125,
    "gps_code": "CYQK",
    "iata_code": "YQK"
  },
  {
    "id": "dbc718ef-b206-4e04-abca-f73aed6a399d",
    "name": "Lethbridge County Airport",
    "is_hub": false,
    "is_destination": false,
    "type": "medium_airport",
    "country": "Canada",
    "city": "Lethbridge",
    "latitude": 49.6302986145,
    "longitude": -112.800003052,
    "gps_code": "CYQL",
    "iata_code": "YQL"
  },
  {
    "id": "62205efd-9cc4-4b2c-8a3f-08a8e25bf151",
    "name": "Greater Moncton International Airport",
    "is_hub": false,
    "is_destination": false,
    "type": "medium_airport",
    "country": "Canada",
    "city": "Moncton",
    "latitude": 46.11220169067383,
    "longitude": -64.67859649658203,
    "gps_code": "CYQM",
    "iata_code": "YQM"
  },
  {
    "id": "b574f3df-714d-43f7-bed2-436812558849",
    "name": "Nakina Airport",
    "is_hub": false,
    "is_destination": false,
    "type": "medium_airport",
    "country": "Canada",
    "city": "Nakina",
    "latitude": 50.18280029296875,
    "longitude": -86.69640350341797,
    "gps_code": "CYQN",
    "iata_code": "YQN"
  },
  {
    "id": "7293d48d-07c9-42f9-b39f-8cf7452f993e",
    "name": "Comox Airport",
    "is_hub": false,
    "is_destination": false,
    "type": "medium_airport",
    "country": "Canada",
    "city": "Comox",
    "latitude": 49.71080017089844,
    "longitude": -124.88700103759766,
    "gps_code": "CYQQ",
    "iata_code": "YQQ"
  },
  {
    "id": "d967b180-9d75-4850-a450-11a94bdaf222",
    "name": "Regina International Airport",
    "is_hub": false,
    "is_destination": false,
    "type": "medium_airport",
    "country": "Canada",
    "city": "Regina",
    "latitude": 50.43190002441406,
    "longitude": -104.66600036621094,
    "gps_code": "CYQR",
    "iata_code": "YQR"
  },
  {
    "id": "f17559df-7d46-43bb-8c1d-a91ebd27adda",
    "name": "St Thomas Municipal Airport",
    "is_hub": false,
    "is_destination": false,
    "type": "medium_airport",
    "country": "Canada",
    "city": "St Thomas",
    "latitude": 42.77000045776367,
    "longitude": -81.11080169677734,
    "gps_code": "CYQS",
    "iata_code": "YQS"
  },
  {
    "id": "d4ae1d98-554c-4a59-af41-c33a3b1c96a8",
    "name": "Thunder Bay Airport",
    "is_hub": false,
    "is_destination": false,
    "type": "medium_airport",
    "country": "Canada",
    "city": "Thunder Bay",
    "latitude": 48.37189865112305,
    "longitude": -89.32389831542969,
    "gps_code": "CYQT",
    "iata_code": "YQT"
  },
  {
    "id": "79fd5663-99f8-4bd4-8198-41529571992d",
    "name": "Grande Prairie Airport",
    "is_hub": false,
    "is_destination": false,
    "type": "medium_airport",
    "country": "Canada",
    "city": "Grande Prairie",
    "latitude": 55.1796989441,
    "longitude": -118.885002136,
    "gps_code": "CYQU",
    "iata_code": "YQU"
  },
  {
    "id": "6b6c8b5e-afd0-48ad-9f79-e18214b7512d",
    "name": "Yorkton Municipal Airport",
    "is_hub": false,
    "is_destination": false,
    "type": "medium_airport",
    "country": "Canada",
    "city": "Yorkton",
    "latitude": 51.26470184326172,
    "longitude": -102.46199798583984,
    "gps_code": "CYQV",
    "iata_code": "YQV"
  },
  {
    "id": "88b498ad-fdbd-4fa1-9c8b-7eddc88dde6c",
    "name": "North Battleford Airport",
    "is_hub": false,
    "is_destination": false,
    "type": "medium_airport",
    "country": "Canada",
    "city": "North Battleford",
    "latitude": 52.76919937133789,
    "longitude": -108.24400329589844,
    "gps_code": "CYQW",
    "iata_code": "YQW"
  },
  {
    "id": "ef8cc3e8-4389-431d-87fd-96f2a11b6bcd",
    "name": "Gander International Airport",
    "is_hub": false,
    "is_destination": false,
    "type": "medium_airport",
    "country": "Canada",
    "city": "Gander",
    "latitude": 48.9369010925293,
    "longitude": -54.56809997558594,
    "gps_code": "CYQX",
    "iata_code": "YQX"
  },
  {
    "id": "c6f79f0b-2753-446c-9c2b-7b7c833c2f9d",
    "name": "Sydney / J.A. Douglas McCurdy Airport",
    "is_hub": false,
    "is_destination": true,
    "type": "medium_airport",
    "country": "Canada",
    "city": "Sydney",
    "latitude": 46.1614,
    "longitude": -60.047798,
    "gps_code": "CYQY",
    "iata_code": "YQY"
  },
  {
    "id": "acbeca58-8572-4c28-8340-e6c0c96ca970",
    "name": "Quesnel Airport",
    "is_hub": false,
    "is_destination": false,
    "type": "medium_airport",
    "country": "Canada",
    "city": "Quesnel",
    "latitude": 53.026100158691406,
    "longitude": -122.51000213623047,
    "gps_code": "CYQZ",
    "iata_code": "YQZ"
  },
  {
    "id": "abac9fd0-5286-439a-94ea-f6af0fa46ad6",
    "name": "Rae Lakes Airport",
    "is_hub": false,
    "is_destination": false,
    "type": "medium_airport",
    "country": "Canada",
    "city": "Gam\u00e8t\u00ec",
    "latitude": 64.11609649658203,
    "longitude": -117.30999755859375,
    "gps_code": "CYRA",
    "iata_code": "YRA"
  },
  {
    "id": "ae7ea0db-f025-49ab-9779-fdcdf78586f4",
    "name": "Resolute Bay Airport",
    "is_hub": false,
    "is_destination": false,
    "type": "medium_airport",
    "country": "Canada",
    "city": "Resolute Bay",
    "latitude": 74.7169036865,
    "longitude": -94.9693984985,
    "gps_code": "CYRB",
    "iata_code": "YRB"
  },
  {
    "id": "d09a3cb2-46ae-4579-8bc5-f750ae8e960e",
    "name": "Rivi\u00e8re-du-Loup Airport",
    "is_hub": false,
    "is_destination": false,
    "type": "medium_airport",
    "country": "Canada",
    "city": "Rivi\u00e8re-du-Loup",
    "latitude": 47.764400482177734,
    "longitude": -69.58470153808594,
    "gps_code": "CYRI",
    "iata_code": "YRI"
  },
  {
    "id": "56a664d5-31d7-4fbe-9ffa-fe39f5f64ee6",
    "name": "Roberval Airport",
    "is_hub": false,
    "is_destination": false,
    "type": "medium_airport",
    "country": "Canada",
    "city": "Roberval",
    "latitude": 48.52000045776367,
    "longitude": -72.2656021118164,
    "gps_code": "CYRJ",
    "iata_code": "YRJ"
  },
  {
    "id": "8230b407-1877-430f-80f4-602427f3069e",
    "name": "Red Lake Airport",
    "is_hub": false,
    "is_destination": false,
    "type": "medium_airport",
    "country": "Canada",
    "city": "Red Lake",
    "latitude": 51.066898345947266,
    "longitude": -93.79309844970703,
    "gps_code": "CYRL",
    "iata_code": "YRL"
  },
  {
    "id": "6aee12c3-e25e-43f4-bf4f-5513b55c200f",
    "name": "Ottawa / Rockcliffe Airport",
    "is_hub": false,
    "is_destination": true,
    "type": "medium_airport",
    "country": "Canada",
    "city": "Ottawa",
    "latitude": 45.4603004456,
    "longitude": -75.64610290530001,
    "gps_code": "CYRO",
    "iata_code": "YRO"
  },
  {
    "id": "420604d8-c115-47d6-a931-051ffdd37535",
    "name": "Trois-Rivi\u00e8res Airport",
    "is_hub": false,
    "is_destination": false,
    "type": "medium_airport",
    "country": "Canada",
    "city": "Trois-Rivi\u00e8res",
    "latitude": 46.35279846191406,
    "longitude": -72.67939758300781,
    "gps_code": "CYRQ",
    "iata_code": "YRQ"
  },
  {
    "id": "28373a0d-2ba4-4c3f-a88a-083f6607d60a",
    "name": "Red Sucker Lake Airport",
    "is_hub": false,
    "is_destination": false,
    "type": "medium_airport",
    "country": "Canada",
    "city": "Red Sucker Lake",
    "latitude": 54.167198181152344,
    "longitude": -93.55719757080078,
    "gps_code": "CYRS",
    "iata_code": "YRS"
  },
  {
    "id": "01cecc25-14a0-4f12-80b5-8b36c14dca93",
    "name": "Rankin Inlet Airport",
    "is_hub": false,
    "is_destination": false,
    "type": "medium_airport",
    "country": "Canada",
    "city": "Rankin Inlet",
    "latitude": 62.8114013672,
    "longitude": -92.1157989502,
    "gps_code": "CYRT",
    "iata_code": "YRT"
  },
  {
    "id": "06b4328b-20d4-4a4c-9279-8e5ea6d13eda",
    "name": "Revelstoke Airport",
    "is_hub": false,
    "is_destination": false,
    "type": "medium_airport",
    "country": "Canada",
    "city": "Revelstoke",
    "latitude": 50.9667015076,
    "longitude": -118.182998657,
    "gps_code": "CYRV",
    "iata_code": "YRV"
  },
  {
    "id": "1cf7012e-6315-4804-b550-c8d42988155e",
    "name": "Sudbury Airport",
    "is_hub": false,
    "is_destination": false,
    "type": "medium_airport",
    "country": "Canada",
    "city": "Sudbury",
    "latitude": 46.625,
    "longitude": -80.79889678955078,
    "gps_code": "CYSB",
    "iata_code": "YSB"
  },
  {
    "id": "a2ade651-1cac-4ddb-b076-29e94ed39d55",
    "name": "Sherbrooke Airport",
    "is_hub": false,
    "is_destination": false,
    "type": "medium_airport",
    "country": "Canada",
    "city": "Sherbrooke",
    "latitude": 45.4385986328125,
    "longitude": -71.69139862060547,
    "gps_code": "CYSC",
    "iata_code": "YSC"
  },
  {
    "id": "a16f536c-6c39-4205-b11a-43a795df572e",
    "name": "Stony Rapids Airport",
    "is_hub": false,
    "is_destination": false,
    "type": "medium_airport",
    "country": "Canada",
    "city": "Stony Rapids",
    "latitude": 59.250301361083984,
    "longitude": -105.84100341796875,
    "gps_code": "CYSF",
    "iata_code": "YSF"
  },
  {
    "id": "b2705552-3d8a-49ea-91da-a167cbbf3f6b",
    "name": "Smiths Falls-Montague (Russ Beach) Airport",
    "is_hub": false,
    "is_destination": false,
    "type": "medium_airport",
    "country": "Canada",
    "city": "Smiths Falls",
    "latitude": 44.94580078125,
    "longitude": -75.94059753417969,
    "gps_code": "CYSH",
    "iata_code": "YSH"
  },
  {
    "id": "9982aacc-dda1-4d76-a675-3911ad9c4765",
    "name": "Saint John Airport",
    "is_hub": false,
    "is_destination": false,
    "type": "medium_airport",
    "country": "Canada",
    "city": "Saint John",
    "latitude": 45.31610107421875,
    "longitude": -65.89029693603516,
    "gps_code": "CYSJ",
    "iata_code": "YSJ"
  },
  {
    "id": "aafe8e8c-14e2-4676-835f-d55cfa89b140",
    "name": "Sanikiluaq Airport",
    "is_hub": false,
    "is_destination": false,
    "type": "medium_airport",
    "country": "Canada",
    "city": "Sanikiluaq",
    "latitude": 56.5377998352,
    "longitude": -79.2466964722,
    "gps_code": "CYSK",
    "iata_code": "YSK"
  },
  {
    "id": "e0261a58-7683-46b2-af42-e70ebbc5c1f6",
    "name": "St Leonard Airport",
    "is_hub": false,
    "is_destination": false,
    "type": "medium_airport",
    "country": "Canada",
    "city": "St Leonard",
    "latitude": 47.157501220703125,
    "longitude": -67.83470153808594,
    "gps_code": "CYSL",
    "iata_code": "YSL"
  },
  {
    "id": "1961faec-9a03-4951-b66b-90596d64bdf1",
    "name": "Fort Smith Airport",
    "is_hub": false,
    "is_destination": false,
    "type": "medium_airport",
    "country": "Canada",
    "city": "Fort Smith",
    "latitude": 60.020301818847656,
    "longitude": -111.96199798583984,
    "gps_code": "CYSM",
    "iata_code": "YSM"
  },
  {
    "id": "ba0a27ae-5b93-49ba-9a00-bb81936dfe4e",
    "name": "Niagara District Airport",
    "is_hub": false,
    "is_destination": false,
    "type": "medium_airport",
    "country": "Canada",
    "city": "St Catharines",
    "latitude": 43.19169998168945,
    "longitude": -79.17169952392578,
    "gps_code": "CYSN",
    "iata_code": "YCM"
  },
  {
    "id": "03e0ec56-e325-4576-923b-60558ec9abdb",
    "name": "Marathon Airport",
    "is_hub": false,
    "is_destination": false,
    "type": "medium_airport",
    "country": "Canada",
    "city": "Marathon",
    "latitude": 48.75529861450195,
    "longitude": -86.34439849853516,
    "gps_code": "CYSP",
    "iata_code": "YSP"
  },
  {
    "id": "43d92bdd-d17b-47ca-a76f-6047f40c6016",
    "name": "St. Theresa Point Airport",
    "is_hub": false,
    "is_destination": false,
    "type": "medium_airport",
    "country": "Canada",
    "city": "St. Theresa Point",
    "latitude": 53.84560012817383,
    "longitude": -94.85189819335938,
    "gps_code": "CYST",
    "iata_code": "YST"
  },
  {
    "id": "561553f2-efc7-4fb8-8762-5045912c3307",
    "name": "Summerside Airport",
    "is_hub": false,
    "is_destination": false,
    "type": "medium_airport",
    "country": "Canada",
    "city": "Summerside",
    "latitude": 46.44060134887695,
    "longitude": -63.83359909057617,
    "gps_code": "CYSU",
    "iata_code": "YSU"
  },
  {
    "id": "33743367-ad81-4d3c-92cd-a4ebaf2fbce8",
    "name": "Sachs Harbour (David Nasogaluak Jr. Saaryuaq) Airport",
    "is_hub": false,
    "is_destination": false,
    "type": "medium_airport",
    "country": "Canada",
    "city": "Sachs Harbour",
    "latitude": 71.9938964844,
    "longitude": -125.242996216,
    "gps_code": "CYSY",
    "iata_code": "YSY"
  },
  {
    "id": "9f464c8b-d830-4e51-adff-dd1c1f72e7d6",
    "name": "Pembroke Airport",
    "is_hub": false,
    "is_destination": false,
    "type": "medium_airport",
    "country": "Canada",
    "city": "Pembroke",
    "latitude": 45.86439895629883,
    "longitude": -77.25170135498047,
    "gps_code": "CYTA",
    "iata_code": "YTA"
  },
  {
    "id": "d80c6a7d-e231-46cc-952c-2b038a0a5095",
    "name": "Cape Dorset Airport",
    "is_hub": false,
    "is_destination": false,
    "type": "medium_airport",
    "country": "Canada",
    "city": "Cape Dorset",
    "latitude": 64.2300033569,
    "longitude": -76.5267028809,
    "gps_code": "CYTE",
    "iata_code": "YTE"
  },
  {
    "id": "998ae698-f01d-4db1-ac72-367e987829a9",
    "name": "Alma Airport",
    "is_hub": false,
    "is_destination": false,
    "type": "medium_airport",
    "country": "Canada",
    "city": "Alma",
    "latitude": 48.50889968869999,
    "longitude": -71.64189910889999,
    "gps_code": "CYTF",
    "iata_code": "YTF"
  },
  {
    "id": "69f64342-055e-4ea6-959e-2b37b762a172",
    "name": "Thompson Airport",
    "is_hub": false,
    "is_destination": false,
    "type": "medium_airport",
    "country": "Canada",
    "city": "Thompson",
    "latitude": 55.80110168457031,
    "longitude": -97.86419677734375,
    "gps_code": "CYTH",
    "iata_code": "YTH"
  },
  {
    "id": "1e2bb318-dcec-4b87-b27d-5b85217f5422",
    "name": "Big Trout Lake Airport",
    "is_hub": false,
    "is_destination": false,
    "type": "medium_airport",
    "country": "Canada",
    "city": "Big Trout Lake",
    "latitude": 53.81779861450195,
    "longitude": -89.89689636230469,
    "gps_code": "CYTL",
    "iata_code": "YTL"
  },
  {
    "id": "ac408336-4129-46b6-a71e-c53b75eb08db",
    "name": "Tasiujaq Airport",
    "is_hub": false,
    "is_destination": false,
    "type": "medium_airport",
    "country": "Canada",
    "city": "Tasiujaq",
    "latitude": 58.66780090332031,
    "longitude": -69.95580291748047,
    "gps_code": "CYTQ",
    "iata_code": "YTQ"
  },
  {
    "id": "b3e8347c-94e1-42c9-a6f3-4bd512e85ddd",
    "name": "CFB Trenton",
    "is_hub": false,
    "is_destination": false,
    "type": "medium_airport",
    "country": "Canada",
    "city": "Trenton",
    "latitude": 44.118900299072266,
    "longitude": -77.5280990600586,
    "gps_code": "CYTR",
    "iata_code": "YTR"
  },
  {
    "id": "c439aa81-13d4-4bc1-b16d-e02f5d9cdbbe",
    "name": "Timmins/Victor M. Power",
    "is_hub": false,
    "is_destination": false,
    "type": "medium_airport",
    "country": "Canada",
    "city": "Timmins",
    "latitude": 48.569698333699996,
    "longitude": -81.376701355,
    "gps_code": "CYTS",
    "iata_code": "YTS"
  },
  {
    "id": "265dbeef-4494-4a4b-a1d6-b26c0b4a5664",
    "name": "Billy Bishop Toronto City Centre Airport",
    "is_hub": false,
    "is_destination": true,
    "type": "medium_airport",
    "country": "Canada",
    "city": "Toronto",
    "latitude": 43.627499,
    "longitude": -79.396202,
    "gps_code": "CYTZ",
    "iata_code": "YTZ"
  },
  {
    "id": "be684812-60b5-4197-acb6-bc0051c023bf",
    "name": "Tuktoyaktuk Airport",
    "is_hub": false,
    "is_destination": false,
    "type": "medium_airport",
    "country": "Canada",
    "city": "Tuktoyaktuk",
    "latitude": 69.43329620361328,
    "longitude": -133.0260009765625,
    "gps_code": "CYUB",
    "iata_code": "YUB"
  },
  {
    "id": "9fee4a6c-562c-4d3a-ae3c-9046d8f8af09",
    "name": "Montreal / Pierre Elliott Trudeau International Airport",
    "is_hub": false,
    "is_destination": false,
    "type": "large_airport",
    "country": "Canada",
    "city": "Montr\u00e9al",
    "latitude": 45.4706001282,
    "longitude": -73.7407989502,
    "gps_code": "CYUL",
    "iata_code": "YUL"
  },
  {
    "id": "31bdbfcd-4875-4197-8042-ddf73e421724",
    "name": "Repulse Bay Airport",
    "is_hub": false,
    "is_destination": false,
    "type": "medium_airport",
    "country": "Canada",
    "city": "Repulse Bay",
    "latitude": 66.5214004517,
    "longitude": -86.22470092770001,
    "gps_code": "CYUT",
    "iata_code": "YUT"
  },
  {
    "id": "573371d8-9674-4635-a859-7b1f1d7a494b",
    "name": "Hall Beach Airport",
    "is_hub": false,
    "is_destination": false,
    "type": "medium_airport",
    "country": "Canada",
    "city": "Hall Beach",
    "latitude": 68.77610015869999,
    "longitude": -81.2425,
    "gps_code": "CYUX",
    "iata_code": "YUX"
  },
  {
    "id": "d772444e-36c9-4140-9051-dc43cc647ebb",
    "name": "Rouyn Noranda Airport",
    "is_hub": false,
    "is_destination": false,
    "type": "medium_airport",
    "country": "Canada",
    "city": "Rouyn-Noranda",
    "latitude": 48.20610046386719,
    "longitude": -78.83560180664062,
    "gps_code": "CYUY",
    "iata_code": "YUY"
  },
  {
    "id": "7accfa0e-4399-4dfd-aee3-d45106bbdba8",
    "name": "Bonaventure Airport",
    "is_hub": false,
    "is_destination": false,
    "type": "medium_airport",
    "country": "Canada",
    "city": "Bonaventure",
    "latitude": 48.07109832763672,
    "longitude": -65.46029663085938,
    "gps_code": "CYVB",
    "iata_code": "YVB"
  },
  {
    "id": "4a29799c-37f8-4db9-bbd3-1c1f3708cb87",
    "name": "La Ronge Airport",
    "is_hub": false,
    "is_destination": false,
    "type": "medium_airport",
    "country": "Canada",
    "city": "La Ronge",
    "latitude": 55.151401519800004,
    "longitude": -105.262001038,
    "gps_code": "CYVC",
    "iata_code": "YVC"
  },
  {
    "id": "fece6584-8bff-46fc-b9c2-d1e2c05532f3",
    "name": "Vernon Airport",
    "is_hub": false,
    "is_destination": false,
    "type": "medium_airport",
    "country": "Canada",
    "city": "Vernon",
    "latitude": 50.24810028076172,
    "longitude": -119.33100128173828,
    "gps_code": "CYVK",
    "iata_code": "YVE"
  },
  {
    "id": "35f445f9-8e8d-4117-8f8b-f123ddd9f46b",
    "name": "Qikiqtarjuaq Airport",
    "is_hub": false,
    "is_destination": false,
    "type": "medium_airport",
    "country": "Canada",
    "city": "Qikiqtarjuaq",
    "latitude": 67.5457992554,
    "longitude": -64.03140258789999,
    "gps_code": "CYVM",
    "iata_code": "YVM"
  },
  {
    "id": "ceddebcb-c045-40a8-99eb-3512c4b8d182",
    "name": "Val-d'Or Airport",
    "is_hub": false,
    "is_destination": false,
    "type": "medium_airport",
    "country": "Canada",
    "city": "Val-d'Or",
    "latitude": 48.0532989502,
    "longitude": -77.7827987671,
    "gps_code": "CYVO",
    "iata_code": "YVO"
  },
  {
    "id": "a49207e8-c68f-4df6-a99a-52071cdf4c1f",
    "name": "Kuujjuaq Airport",
    "is_hub": false,
    "is_destination": false,
    "type": "medium_airport",
    "country": "Canada",
    "city": "Kuujjuaq",
    "latitude": 58.096099853515625,
    "longitude": -68.4269027709961,
    "gps_code": "CYVP",
    "iata_code": "YVP"
  },
  {
    "id": "0bbbfdd9-3c1e-4255-8900-e606030f263d",
    "name": "Norman Wells Airport",
    "is_hub": false,
    "is_destination": false,
    "type": "medium_airport",
    "country": "Canada",
    "city": "Norman Wells",
    "latitude": 65.28160095214844,
    "longitude": -126.7979965209961,
    "gps_code": "CYVQ",
    "iata_code": "YVQ"
  },